{"nodes":[{"label":"Central Illinois Regional Airport at Bloomington-Normal","x":806.4127807617188,"y":207.74603271484375,"id":"32","attributes":{"latitude":"40.477222","City":"Bloomington/Normal, IL","Code":"BMI","longitude":"-88.915833"},"color":"rgb(209,35,142)","size":4.814535617828369},{"label":"Redding","x":-4679.5595703125,"y":212.66806030273438,"id":"177","attributes":{"latitude":"40.5","City":"Redding","Code":"RDD","longitude":"-122.3"},"color":"rgb(208,28,139)","size":4.0},{"label":"Cincinnati/northern Kentucky","x":1504.4896240234375,"y":-97.61557006835938,"id":"41","attributes":{"latitude":"39.048889","City":"Covington, KY","Code":"CVG","longitude":"-84.667778"},"color":"rgb(231,240,227)","size":31.01061248779297},{"label":"Joe Foss Field Airport","x":-479.6408996582031,"y":894.8206176757812,"id":"101","attributes":{"latitude":"43.581944","City":"Sioux Falls","Code":"FSD","longitude":"-96.741944"},"color":"rgb(209,39,144)","size":5.247169494628906},{"label":"Ronald Reagan Washington National Airport","x":2758.316650390625,"y":-139.23060607910156,"id":"189","attributes":{"latitude":"38.851944","City":"Washington, DC","Code":"DCA","longitude":"-77.037778"},"color":"rgb(221,105,177)","size":12.752896308898926},{"label":"Bob Hope","x":-4030.4619140625,"y":-1091.0728759765625,"id":"23","attributes":{"latitude":"34.2","City":"Burbank","Code":"BUR","longitude":"-118.35"},"color":"rgb(208,28,139)","size":4.0},{"label":"General Mitchell International","x":973.3431396484375,"y":752.2079467773438,"id":"69","attributes":{"latitude":"42.95","City":"Milwaukee","Code":"MKE","longitude":"-87.9"},"color":"rgb(220,97,173)","size":11.858419418334961},{"label":"Charleston, AFB Municipal","x":2264.874267578125,"y":-1347.6861572265625,"id":"34","attributes":{"latitude":"32.898611","City":"Charleston, SC","Code":"CHS","longitude":"-80.040556"},"color":"rgb(211,47,148)","size":6.160974502563477},{"label":"Washington Dulles International","x":2689.6181640625,"y":-119.69942474365234,"id":"223","attributes":{"latitude":"38.944444","City":"Washington, DC","Code":"IAD","longitude":"-77.455833"},"color":"rgb(215,67,158)","size":8.440536499023438},{"label":"Akron/canton Regional","x":2034.5406494140625,"y":302.8728942871094,"id":"1","attributes":{"latitude":"40.916111","City":"Akron/Canton, OH","Code":"CAK","longitude":"-81.442222"},"color":"rgb(211,46,148)","size":6.061251640319824},{"label":"Jefferson County","x":-45.49398422241211,"y":-1890.3154296875,"id":"100","attributes":{"latitude":"30.083333","City":"Beaumont","Code":"BPT","longitude":"-94.1"},"color":"rgb(208,28,139)","size":4.0},{"label":"Arcata","x":-4975.35107421875,"y":317.49871826171875,"id":"7","attributes":{"latitude":"40.983333","City":"Arcata","Code":"ACV","longitude":"-124.1"},"color":"rgb(208,28,139)","size":4.0},{"label":"Regional","x":2098.993896484375,"y":-2060.468505859375,"id":"178","attributes":{"latitude":"29.183333","City":"Daytona Beach","Code":"DAB","longitude":"-81.05"},"color":"rgb(208,28,139)","size":4.0},{"label":"Mason City Municipal","x":80.81077575683594,"y":798.9346313476562,"id":"124","attributes":{"latitude":"43.157778","City":"Mason City, IA","Code":"MCW","longitude":"-93.331389"},"color":"rgb(208,28,139)","size":4.0},{"label":"El Paso International Airport","x":-2063.99658203125,"y":-1561.3907470703125,"id":"56","attributes":{"latitude":"31.8","City":"El Paso","Code":"ELP","longitude":"-106.383333"},"color":"rgb(208,28,139)","size":4.0},{"label":"Newport News/williamsb","x":2846.68896484375,"y":-497.6166687011719,"id":"155","attributes":{"latitude":"37.133333","City":"Newport News","Code":"PHF","longitude":"-76.5"},"color":"rgb(208,28,139)","size":4.0},{"label":"Yakima Air Terminal","x":-4389.24609375,"y":1589.595703125,"id":"232","attributes":{"latitude":"46.566667","City":"Yakima","Code":"YKM","longitude":"-120.533333"},"color":"rgb(208,28,139)","size":4.0},{"label":"International","x":-2102.340087890625,"y":1990.15771484375,"id":"89","attributes":{"latitude":"48.216667","City":"Glasgow","Code":"GGW","longitude":"-106.616667"},"color":"rgb(208,28,139)","size":4.0},{"label":"Long Beach Municipal","x":-3997.59619140625,"y":-1167.0633544921875,"id":"116","attributes":{"latitude":"33.816667","City":"Long Beach","Code":"LGB","longitude":"-118.15"},"color":"rgb(208,28,139)","size":4.0},{"label":"Mc Carran Intl","x":-3507.34912109375,"y":-712.5706176757812,"id":"127","attributes":{"latitude":"36.083333","City":"Las Vegas","Code":"LAS","longitude":"-115.166667"},"color":"rgb(215,69,159)","size":8.64654541015625},{"label":"Austin-straubel Field","x":934.9999389648438,"y":1100.85693359375,"id":"10","attributes":{"latitude":"44.483333","City":"Green Bay","Code":"GRB","longitude":"-88.133333"},"color":"rgb(219,91,170)","size":11.21634578704834},{"label":"Chippewa County","x":1537.5379638671875,"y":1514.1253662109375,"id":"38","attributes":{"latitude":"46.25","City":"Sault Ste Marie","Code":"CIU","longitude":"-84.466667"},"color":"rgb(209,37,143)","size":5.028078079223633},{"label":"Jamestown","x":-798.66650390625,"y":1677.5340576171875,"id":"99","attributes":{"latitude":"46.933333","City":"Jamestown","Code":"JMS","longitude":"-98.683333"},"color":"rgb(209,35,142)","size":4.814535617828369},{"label":"Sacramento International","x":-4567.2685546875,"y":-171.2584991455078,"id":"191","attributes":{"latitude":"38.7","City":"Sacramento, CA","Code":"SMF","longitude":"-121.616667"},"color":"rgb(214,62,155)","size":7.848064422607422},{"label":"Pangborn Field","x":-4334.4697265625,"y":1790.331787109375,"id":"166","attributes":{"latitude":"47.4","City":"Wenatchee","Code":"EAT","longitude":"-120.2"},"color":"rgb(208,28,139)","size":4.0},{"label":"Burlington International","x":3396.64208984375,"y":1098.2335205078125,"id":"28","attributes":{"latitude":"44.471944","City":"Burlington","Code":"BTV","longitude":"-73.153333"},"color":"rgb(209,35,142)","size":4.886773109436035},{"label":"Syracuse Hancock International Airport","x":2909.681396484375,"y":789.6767578125,"id":"210","attributes":{"latitude":"43.116667","City":"Syracuse","Code":"SYR","longitude":"-76.116667"},"color":"rgb(215,70,159)","size":8.791711807250977},{"label":"Harrisburg International","x":2803.416015625,"y":146.60557556152344,"id":"79","attributes":{"latitude":"40.193611","City":"Harrisburg, PA","Code":"MDT","longitude":"-76.763333"},"color":"rgb(215,71,160)","size":8.939068794250488},{"label":"Seattle-Tacoma International","x":-4681.111328125,"y":1802.2061767578125,"id":"200","attributes":{"latitude":"47.448889","City":"Seattle, WA","Code":"SEA","longitude":"-122.309444"},"color":"rgb(134,197,108)","size":45.043399810791016},{"label":"Bishop International Airport","x":1656.356689453125,"y":755.7008056640625,"id":"20","attributes":{"latitude":"42.965556","City":"Flint","Code":"FNT","longitude":"-83.743611"},"color":"rgb(216,74,161)","size":9.237325668334961},{"label":"Spokane International","x":-3896.3515625,"y":1843.7861328125,"id":"206","attributes":{"latitude":"47.619722","City":"Spokane","Code":"GEG","longitude":"-117.533889"},"color":"rgb(210,41,145)","size":5.573288440704346},{"label":"South Bend Regional","x":1233.5301513671875,"y":474.3625183105469,"id":"204","attributes":{"latitude":"41.7","City":"South Bend","Code":"SBN","longitude":"-86.316667"},"color":"rgb(219,94,171)","size":11.52590274810791},{"label":"Regional","x":1091.112060546875,"y":-1817.3741455078125,"id":"180","attributes":{"latitude":"30.466667","City":"Pensacola","Code":"PNS","longitude":"-87.183333"},"color":"rgb(210,42,146)","size":5.633713722229004},{"label":"Municipal","x":-59.1879768371582,"y":1356.6529541015625,"id":"147","attributes":{"latitude":"45.583333","City":"Saint Cloud","Code":"STC","longitude":"-94.183333"},"color":"rgb(208,28,139)","size":4.0},{"label":"Eugene","x":-4830.1943359375,"y":1016.6671142578125,"id":"60","attributes":{"latitude":"44.116667","City":"Eugene","Code":"EUG","longitude":"-123.216667"},"color":"rgb(208,28,139)","size":4.0},{"label":"Denver International","x":-1782.94921875,"y":75.36935424804688,"id":"48","attributes":{"latitude":"39.861667","City":"Denver","Code":"DEN","longitude":"-104.673056"},"color":"rgb(216,75,162)","size":9.336271286010742},{"label":"Municipal","x":-4275.35693359375,"y":-1244.136474609375,"id":"148","attributes":{"latitude":"33.426111","City":"Santa Barbara, CA","Code":"SBA","longitude":"-119.840278"},"color":"rgb(208,28,139)","size":4.0},{"label":"Tucson International Airport","x":-2812.9697265625,"y":-1500.165283203125,"id":"218","attributes":{"latitude":"32.116111","City":"Tucson, AZ","Code":"TUS","longitude":"-110.941111"},"color":"rgb(210,40,144)","size":5.369887828826904},{"label":"San Francisco International","x":-4691.884765625,"y":-397.20867919921875,"id":"195","attributes":{"latitude":"37.618889","City":"San Francisco, CA","Code":"SFO","longitude":"-122.375"},"color":"rgb(216,76,163)","size":9.498331069946289},{"label":"Tampa International","x":1855.2855224609375,"y":-2286.485595703125,"id":"213","attributes":{"latitude":"27.975556","City":"Tampa","Code":"TPA","longitude":"-82.533056"},"color":"rgb(216,76,163)","size":9.520694732666016},{"label":"Northwest Arkansas Regional","x":-79.45526885986328,"y":-672.1911010742188,"id":"159","attributes":{"latitude":"36.281667","City":"Fayetteville, AR","Code":"XNA","longitude":"-94.306667"},"color":"rgb(214,65,157)","size":8.187185287475586},{"label":"Buffalo Niagara International","x":2479.87109375,"y":750.0874633789062,"id":"27","attributes":{"latitude":"42.940556","City":"Buffalo, NY","Code":"BUF","longitude":"-78.732222"},"color":"rgb(211,45,147)","size":5.923089504241943},{"label":"Yeager","x":2008.61328125,"y":-241.28274536132812,"id":"234","attributes":{"latitude":"38.366667","City":"Charleston","Code":"CRW","longitude":"-81.6"},"color":"rgb(208,28,139)","size":4.0},{"label":"Falls Intl","x":69.53601837158203,"y":2076.7724609375,"id":"62","attributes":{"latitude":"48.566667","City":"International Falls","Code":"INL","longitude":"-93.4"},"color":"rgb(208,28,139)","size":4.0},{"label":"Hector Field","x":-491.9200134277344,"y":1673.5240478515625,"id":"82","attributes":{"latitude":"46.916667","City":"Fargo","Code":"FAR","longitude":"-96.816667"},"color":"rgb(216,75,162)","size":9.380125045776367},{"label":"Glacier Park International","x":-3359.45361328125,"y":2014.8436279296875,"id":"71","attributes":{"latitude":"48.316667","City":"Kalispell, MT","Code":"FCA","longitude":"-114.266667"},"color":"rgb(210,40,145)","size":5.444365501403809},{"label":"Indianapolis International","x":1237.1363525390625,"y":44.478736877441406,"id":"87","attributes":{"latitude":"39.717222","City":"Indianapolis, IN","Code":"IND","longitude":"-86.294722"},"color":"rgb(228,142,195)","size":16.891700744628906},{"label":"Hartsfield-jackson Atlanta International","x":1543.8828125,"y":-1202.6282958984375,"id":"80","attributes":{"latitude":"33.636667","City":"Atlanta, GA","Code":"ATL","longitude":"-84.428056"},"color":"rgb(100,182,66)","size":50.082191467285156},{"label":"Springfield-Branson Rg","x":72.2748794555664,"y":-473.55023193359375,"id":"207","attributes":{"latitude":"37.25","City":"Springfield","Code":"SGF","longitude":"-93.383333"},"color":"rgb(213,60,155)","size":7.685281753540039},{"label":"Bert Mooney Airport","x":-3068.72900390625,"y":1444.144775390625,"id":"17","attributes":{"latitude":"45.954722","City":"Butte,","Code":"BTM","longitude":"-112.4975"},"color":"rgb(208,28,139)","size":4.0},{"label":"Nez Perce County Rgnl","x":-3814.095703125,"y":1545.8486328125,"id":"156","attributes":{"latitude":"46.383333","City":"Lewiston","Code":"LWS","longitude":"-117.033333"},"color":"rgb(208,28,139)","size":4.0},{"label":"Dawson Community","x":-1784.6380615234375,"y":1725.7542724609375,"id":"47","attributes":{"latitude":"47.133333","City":"Glendive","Code":"GDV","longitude":"-104.683333"},"color":"rgb(208,28,139)","size":4.0},{"label":"Roanoke Regional Airport","x":2274.27783203125,"y":-459.7812194824219,"id":"186","attributes":{"latitude":"37.316667","City":"Roanoke","Code":"ROA","longitude":"-79.983333"},"color":"rgb(209,39,144)","size":5.256736755371094},{"label":"Salt Lake City International","x":-2981.497802734375,"y":275.113037109375,"id":"192","attributes":{"latitude":"40.788333","City":"Salt Lake City, UT","Code":"SLC","longitude":"-111.966667"},"color":"rgb(246,244,245)","size":28.45775604248047},{"label":"Asheville Regional Airport","x":1853.870361328125,"y":-843.6382446289062,"id":"8","attributes":{"latitude":"35.436111","City":"Fletcher","Code":"AVL","longitude":"-82.541667"},"color":"rgb(210,39,144)","size":5.2734785079956055},{"label":"Helena","x":-2984.236572265625,"y":1597.565185546875,"id":"83","attributes":{"latitude":"46.6","City":"Helena","Code":"HLN","longitude":"-111.983333"},"color":"rgb(210,42,146)","size":5.665221214294434},{"label":"Kansas City International Airport","x":-149.1123504638672,"y":-46.15591812133789,"id":"105","attributes":{"latitude":"39.291667","City":"Kansas City","Code":"MCI","longitude":"-94.730556"},"color":"rgb(222,109,179)","size":13.239418029785156},{"label":"Raleigh-durham International Airport","x":2470.787353515625,"y":-754.313232421875,"id":"176","attributes":{"latitude":"35.877778","City":"Raleigh/Durham, NC","Code":"RDU","longitude":"-78.7875"},"color":"rgb(219,94,171)","size":11.536811828613281},{"label":"Louisville International","x":1328.9320068359375,"y":-281.5174255371094,"id":"120","attributes":{"latitude":"38.174444","City":"Louisville, KY","Code":"SDF","longitude":"-85.736111"},"color":"rgb(219,89,169)","size":10.97430419921875},{"label":"Westmoreland County","x":2370.13623046875,"y":165.92010498046875,"id":"227","attributes":{"latitude":"40.283333","City":"Latrobe","Code":"LBE","longitude":"-79.4"},"color":"rgb(208,28,139)","size":4.0},{"label":"Pullman-Moscow Regional Airport","x":-3827.7900390625,"y":1633.4898681640625,"id":"174","attributes":{"latitude":"46.75","City":"Pullman","Code":"PUW","longitude":"-117.116667"},"color":"rgb(208,28,139)","size":4.0},{"label":"Houghton County","x":862.6953125,"y":1723.4061279296875,"id":"85","attributes":{"latitude":"47.123611","City":"Hancock","Code":"CMX","longitude":"-88.573333"},"color":"rgb(208,33,141)","size":4.5967864990234375},{"label":"Tulsa International","x":-339.3226623535156,"y":-689.1696166992188,"id":"219","attributes":{"latitude":"36.198333","City":"Tulsa","Code":"TUL","longitude":"-95.888056"},"color":"rgb(215,72,160)","size":8.981302261352539},{"label":"Outagamie County","x":872.0072021484375,"y":1051.0447998046875,"id":"164","attributes":{"latitude":"44.266667","City":"Appleton","Code":"ATW","longitude":"-88.516667"},"color":"rgb(219,89,169)","size":10.972799301147461},{"label":"Colorado Springs","x":-1790.11572265625,"y":-146.6725311279297,"id":"43","attributes":{"latitude":"38.816667","City":"Colorado Springs","Code":"COS","longitude":"-104.716667"},"color":"rgb(209,35,142)","size":4.837796211242676},{"label":"Tri-cities Regional","x":1875.9178466796875,"y":-632.6741943359375,"id":"217","attributes":{"latitude":"36.475278","City":"Blountville","Code":"TRI","longitude":"-82.4075"},"color":"rgb(215,68,159)","size":8.597007751464844},{"label":"Eagle County","x":-2151.638427734375,"y":26.56810760498047,"id":"54","attributes":{"latitude":"39.633333","City":"Vail/Eagle","Code":"EGE","longitude":"-106.916667"},"color":"rgb(208,28,139)","size":4.0},{"label":"Dothan Arpt","x":1375.9482421875,"y":-1654.6016845703125,"id":"52","attributes":{"latitude":"31.316667","City":"Dothan","Code":"DHN","longitude":"-85.45"},"color":"rgb(208,28,139)","size":4.0},{"label":"Sioux Gateway","x":-420.7108459472656,"y":629.2747802734375,"id":"202","attributes":{"latitude":"42.4","City":"Sioux City","Code":"SUX","longitude":"-96.383333"},"color":"rgb(209,35,142)","size":4.814535617828369},{"label":"City County","x":-2619.974853515625,"y":2072.63427734375,"id":"42","attributes":{"latitude":"48.55","City":"Havre","Code":"HVR","longitude":"-109.766667"},"color":"rgb(208,28,139)","size":4.0},{"label":"Long Island Mac Arthur","x":3405.360595703125,"y":276.6203918457031,"id":"117","attributes":{"latitude":"40.795278","City":"Islip, NY","Code":"ISP","longitude":"-73.100278"},"color":"rgb(208,28,139)","size":4.0},{"label":"Jacksonville,","x":2003.1356201171875,"y":-1826.9044189453125,"id":"97","attributes":{"latitude":"30.416667","City":"Jacksonville, FL","Code":"JAX","longitude":"-81.633333"},"color":"rgb(214,62,155)","size":7.883298873901367},{"label":"Hattiesburg-Laurel Regional","x":737.2122802734375,"y":-1625.618896484375,"id":"81","attributes":{"latitude":"31.467222","City":"Hattiesburg/Laurel, MS","Code":"PIB","longitude":"-89.336944"},"color":"rgb(208,28,139)","size":4.0},{"label":"Grand Forks","x":-552.1737060546875,"y":1924.561767578125,"id":"72","attributes":{"latitude":"47.95","City":"Grand Forks","Code":"GFK","longitude":"-97.183333"},"color":"rgb(214,62,156)","size":7.922730922698975},{"label":"University Park","x":2619.367919921875,"y":271.61676025390625,"id":"221","attributes":{"latitude":"40.772222","City":"State College","Code":"SCE","longitude":"-77.883333"},"color":"rgb(210,43,146)","size":5.773550510406494},{"label":"Dane County Regional","x":737.1209106445312,"y":794.8677368164062,"id":"45","attributes":{"latitude":"43.139722","City":"Madison","Code":"MSN","longitude":"-89.3375"},"color":"rgb(221,104,176)","size":12.617907524108887},{"label":"Municipal","x":-3726.453857421875,"y":-1163.76708984375,"id":"146","attributes":{"latitude":"33.833333","City":"Palm Springs","Code":"PSP","longitude":"-116.5"},"color":"rgb(210,40,145)","size":5.425617218017578},{"label":"Mc Allen Miller International","x":-725.5859375,"y":-2618.65380859375,"id":"126","attributes":{"latitude":"26.175833","City":"Mc Allen, TX","Code":"MFE","longitude":"-98.238611"},"color":"rgb(208,28,139)","size":4.0},{"label":"International","x":-2882.900634765625,"y":1814.6322021484375,"id":"90","attributes":{"latitude":"47.5","City":"Great Falls","Code":"GTF","longitude":"-111.366667"},"color":"rgb(211,48,149)","size":6.338856220245361},{"label":"Sarasota-Bradenton International Airport","x":1851.7708740234375,"y":-2394.11962890625,"id":"197","attributes":{"latitude":"27.395556","City":"Sarasota, FL","Code":"SRQ","longitude":"-82.554444"},"color":"rgb(208,33,141)","size":4.582729816436768},{"label":"Palm Beach International","x":2255.836181640625,"y":-2525.57373046875,"id":"165","attributes":{"latitude":"26.683056","City":"West Palm Beach","Code":"PBI","longitude":"-80.095556"},"color":"rgb(209,34,142)","size":4.754631042480469},{"label":"Bradley International","x":3473.876220703125,"y":527.03759765625,"id":"25","attributes":{"latitude":"41.938889","City":"Windsor Locks, CT","Code":"BDL","longitude":"-72.683333"},"color":"rgb(212,52,151)","size":6.768809795379639},{"label":"University Of Illinois Willard","x":910.3505859375,"y":112.16638946533203,"id":"220","attributes":{"latitude":"40.033333","City":"Champaign","Code":"CMI","longitude":"-88.283333"},"color":"rgb(208,28,139)","size":4.0},{"label":"Richmond International Airport","x":2712.4873046875,"y":-421.85382080078125,"id":"185","attributes":{"latitude":"37.5","City":"Richmond, VA","Code":"RIC","longitude":"-77.316667"},"color":"rgb(217,82,165)","size":10.103774070739746},{"label":"Nashville International","x":1174.1435546875,"y":-704.209228515625,"id":"152","attributes":{"latitude":"36.124444","City":"Nashville, TN","Code":"BNA","longitude":"-86.678056"},"color":"rgb(221,103,176)","size":12.476136207580566},{"label":"Bellingham","x":-4717.9033203125,"y":2134.848876953125,"id":"15","attributes":{"latitude":"48.8","City":"Bellingham","Code":"BLI","longitude":"-122.533333"},"color":"rgb(208,28,139)","size":4.0},{"label":"Missoula International","x":-3329.326416015625,"y":1673.5240478515625,"id":"137","attributes":{"latitude":"46.916667","City":"Missoula","Code":"MSO","longitude":"-114.083333"},"color":"rgb(210,40,144)","size":5.3658833503723145},{"label":"Roberts Field","x":-4490.58154296875,"y":1047.220458984375,"id":"187","attributes":{"latitude":"44.25","City":"Redmond","Code":"RDM","longitude":"-121.15"},"color":"rgb(208,28,139)","size":4.0},{"label":"Fresno Air Terminal Airport","x":-4255.04443359375,"y":-573.0134887695312,"id":"66","attributes":{"latitude":"36.766667","City":"Fresno","Code":"FAT","longitude":"-119.716667"},"color":"rgb(208,28,139)","size":4.0},{"label":"Greater Peoria","x":680.2906494140625,"y":248.7306671142578,"id":"74","attributes":{"latitude":"40.666667","City":"Peoria, IL","Code":"PIA","longitude":"-89.683333"},"color":"rgb(210,41,145)","size":5.505827903747559},{"label":"William P Hobby","x":-239.21913146972656,"y":-1973.2708740234375,"id":"230","attributes":{"latitude":"29.645556","City":"Houston, TX","Code":"HOU","longitude":"-95.278889"},"color":"rgb(208,28,139)","size":4.0},{"label":"Municipal/Baer Field","x":1430.7242431640625,"y":346.5521240234375,"id":"149","attributes":{"latitude":"41.116667","City":"Fort Wayne","Code":"FWA","longitude":"-85.116667"},"color":"rgb(210,42,145)","size":5.595125675201416},{"label":"Tri-cities","x":-4156.85791015625,"y":1517.62451171875,"id":"216","attributes":{"latitude":"46.264722","City":"Pasco, WA","Code":"PSC","longitude":"-119.119167"},"color":"rgb(208,28,139)","size":4.0},{"label":"Portland International","x":-4728.447265625,"y":1357.8919677734375,"id":"173","attributes":{"latitude":"45.588611","City":"Portland, OR","Code":"PDX","longitude":"-122.5975"},"color":"rgb(213,232,205)","size":33.5693359375},{"label":"Eppley Airfield","x":-341.285400390625,"y":386.5977478027344,"id":"59","attributes":{"latitude":"41.3","City":"Omaha","Code":"OMA","longitude":"-95.9"},"color":"rgb(220,99,174)","size":12.038078308105469},{"label":"Municipal","x":-757.5844116210938,"y":1325.3836669921875,"id":"140","attributes":{"latitude":"45.45","City":"Aberdeen","Code":"ABR","longitude":"-98.433333"},"color":"rgb(208,28,139)","size":4.0},{"label":"Mobile Regional Airport","x":917.0149536132812,"y":-1774.533935546875,"id":"138","attributes":{"latitude":"30.691111","City":"Alabama, AL","Code":"MOB","longitude":"-88.242778"},"color":"rgb(209,37,143)","size":5.073247909545898},{"label":"Ontario International","x":-3907.39794921875,"y":-1119.6373291015625,"id":"162","attributes":{"latitude":"34.056111","City":"Ontario","Code":"ONT","longitude":"-117.601111"},"color":"rgb(208,28,139)","size":4.0},{"label":"Sheffield","x":1019.9029541015625,"y":-981.4363403320312,"id":"201","attributes":{"latitude":"34.75","City":"Sheffield","Code":"MSL","longitude":"-87.616667"},"color":"rgb(208,28,139)","size":4.0},{"label":"Stewart","x":3254.771484375,"y":430.41204833984375,"id":"208","attributes":{"latitude":"41.5","City":"Newburgh","Code":"SWF","longitude":"-74.016667"},"color":"rgb(209,39,144)","size":5.264333248138428},{"label":"Will Rogers World Airport","x":-620.7808227539062,"y":-852.3197021484375,"id":"229","attributes":{"latitude":"35.393056","City":"Oklahoma City","Code":"OKC","longitude":"-97.600833"},"color":"rgb(211,49,149)","size":6.470589637756348},{"label":"Walla Walla","x":-4022.245361328125,"y":1478.52880859375,"id":"222","attributes":{"latitude":"46.1","City":"Walla Walla","Code":"ALW","longitude":"-118.3"},"color":"rgb(208,28,139)","size":4.0},{"label":"Newark Liberty International","x":3229.802734375,"y":254.3279266357422,"id":"154","attributes":{"latitude":"40.6925","City":"Newark","Code":"EWR","longitude":"-74.168611"},"color":"rgb(246,242,244)","size":28.174108505249023},{"label":"Port Columbus Intl","x":1797.7249755859375,"y":105.01409149169922,"id":"172","attributes":{"latitude":"40.0","City":"Columbus","Code":"CMH","longitude":"-82.883333"},"color":"rgb(227,136,192)","size":16.21707534790039},{"label":"Greenville Spartanbur Int\u0027l Airport","x":1906.912109375,"y":-952.2996215820312,"id":"77","attributes":{"latitude":"34.895556","City":"Greenville","Code":"GSP","longitude":"-82.218889"},"color":"rgb(214,62,156)","size":7.925707817077637},{"label":"Dallas/Fort Worth International","x":-528.300537109375,"y":-1348.0125732421875,"id":"44","attributes":{"latitude":"32.896944","City":"Dallas, TX","Code":"DFW","longitude":"-97.038056"},"color":"rgb(222,108,178)","size":13.1239013671875},{"label":"Adams Field Airport","x":262.71343994140625,"y":-985.5469360351562,"id":"0","attributes":{"latitude":"34.729444","City":"Little Rock, AR","Code":"LIT","longitude":"-92.224444"},"color":"rgb(217,78,164)","size":9.747390747070312},{"label":"Cedar Rapids","x":347.1144104003906,"y":515.0764770507812,"id":"31","attributes":{"latitude":"41.884722","City":"Cedar Rapids","Code":"CID","longitude":"-91.710833"},"color":"rgb(213,60,155)","size":7.670075416564941},{"label":"International","x":-1929.7950439453125,"y":1957.316650390625,"id":"94","attributes":{"latitude":"48.083333","City":"Wolf Point","Code":"OLF","longitude":"-105.566667"},"color":"rgb(208,28,139)","size":4.0},{"label":"Municipal","x":-2570.67626953125,"y":1705.6409912109375,"id":"143","attributes":{"latitude":"47.05","City":"Lewistown","Code":"LWT","longitude":"-109.466667"},"color":"rgb(208,28,139)","size":4.0},{"label":"James Cox Dayton Intl","x":1584.0977783203125,"y":51.48276901245117,"id":"98","attributes":{"latitude":"39.75","City":"Dayton, Oh","Code":"DAY","longitude":"-84.183333"},"color":"rgb(216,73,161)","size":9.125768661499023},{"label":"Richland Municipal","x":-1702.4736328125,"y":1867.44287109375,"id":"184","attributes":{"latitude":"47.716667","City":"Sidney","Code":"SDY","longitude":"-104.183333"},"color":"rgb(208,28,139)","size":4.0},{"label":"Wilmington International","x":2616.218017578125,"y":-1077.0487060546875,"id":"231","attributes":{"latitude":"34.270556","City":"Wilmington","Code":"ILM","longitude":"-77.9025"},"color":"rgb(208,28,139)","size":4.0},{"label":"Mid-Continent","x":-593.255859375,"y":-390.75286865234375,"id":"133","attributes":{"latitude":"37.65","City":"Wichita","Code":"ICT","longitude":"-97.433333"},"color":"rgb(215,69,159)","size":8.687835693359375},{"label":"Municipal","x":294.1184387207031,"y":-1425.52587890625,"id":"145","attributes":{"latitude":"32.5","City":"Monroe","Code":"MLU","longitude":"-92.033333"},"color":"rgb(212,54,151)","size":6.940873146057129},{"label":"Albany International","x":3290.376220703125,"y":703.6497802734375,"id":"2","attributes":{"latitude":"42.733333","City":"Albany","Code":"ALB","longitude":"-73.8"},"color":"rgb(210,43,146)","size":5.736197471618652},{"label":"Toledo Express","x":1645.8121337890625,"y":449.5013122558594,"id":"214","attributes":{"latitude":"41.586944","City":"Toledo, OH","Code":"TOL","longitude":"-83.807778"},"color":"rgb(208,28,139)","size":4.0},{"label":"Detroit Metropolitan Wayne County","x":1720.490478515625,"y":587.6126098632812,"id":"50","attributes":{"latitude":"42.2125","City":"Detroit, MI","Code":"DTW","longitude":"-83.353333"},"color":"rgb(89,177,53)","size":51.63185119628906},{"label":"Minneapolis - St. Paul Intl","x":99.61735534667969,"y":1193.306396484375,"id":"136","attributes":{"latitude":"44.883333","City":"Minneapolis","Code":"MSP","longitude":"-93.216944"},"color":"rgb(77,172,38)","size":53.430503845214844},{"label":"Los Angeles International","x":-4039.865234375,"y":-1142.15673828125,"id":"118","attributes":{"latitude":"33.9425","City":"Los Angeles","Code":"LAX","longitude":"-118.407222"},"color":"rgb(233,241,230)","size":30.632387161254883},{"label":"Capital City","x":1518.3663330078125,"y":714.8402709960938,"id":"30","attributes":{"latitude":"42.783333","City":"Lansing","Code":"LAN","longitude":"-84.583333"},"color":"rgb(214,63,156)","size":7.981993675231934},{"label":"Louis Armstrong New OrlÃ©ans International Airport","x":585.84716796875,"y":-1907.399169921875,"id":"119","attributes":{"latitude":"29.993333","City":"New Orleans","Code":"MSY","longitude":"-90.258056"},"color":"rgb(214,63,156)","size":8.010722160339355},{"label":"Eglin AFB","x":1199.2493896484375,"y":-1814.1968994140625,"id":"55","attributes":{"latitude":"30.483333","City":"Valparaiso, FL","Code":"VPS","longitude":"-86.525278"},"color":"rgb(209,35,142)","size":4.872361660003662},{"label":"Albemarle","x":2526.248291015625,"y":-290.1081237792969,"id":"3","attributes":{"latitude":"38.133333","City":"Charlottesville","Code":"CHO","longitude":"-78.45"},"color":"rgb(208,28,139)","size":4.0},{"label":"Lemons Municipal","x":830.3773193359375,"y":-1077.5458984375,"id":"113","attributes":{"latitude":"34.268056","City":"Tupelo","Code":"TUP","longitude":"-88.77"},"color":"rgb(208,28,139)","size":4.0},{"label":"Dannelly Fld","x":1219.8360595703125,"y":-1464.450927734375,"id":"46","attributes":{"latitude":"32.3","City":"Montgomery","Code":"MGM","longitude":"-86.4"},"color":"rgb(208,28,139)","size":4.0},{"label":"Municipal","x":422.84246826171875,"y":963.3633422851562,"id":"141","attributes":{"latitude":"43.883333","City":"La Crosse","Code":"LSE","longitude":"-91.25"},"color":"rgb(209,38,144)","size":5.145265102386475},{"label":"Sawyer International","x":1028.119384765625,"y":1581.6302490234375,"id":"199","attributes":{"latitude":"46.533333","City":"Marquette","Code":"MQT","longitude":"-87.566667"},"color":"rgb(212,50,150)","size":6.565598011016846},{"label":"Birmingham","x":1162.321044921875,"y":-1216.439208984375,"id":"19","attributes":{"latitude":"33.566667","City":"Birmingham","Code":"BHM","longitude":"-86.75"},"color":"rgb(214,63,156)","size":8.00282096862793},{"label":"Ryan","x":439.2752990722656,"y":-1804.65966796875,"id":"190","attributes":{"latitude":"30.533333","City":"Baton Rouge","Code":"BTR","longitude":"-91.15"},"color":"rgb(209,36,143)","size":4.978948593139648},{"label":"Key Field","x":833.6638793945312,"y":-1457.9698486328125,"id":"107","attributes":{"latitude":"32.333333","City":"Meridian","Code":"MEI","longitude":"-88.75"},"color":"rgb(208,28,139)","size":4.0},{"label":"Oneida County","x":718.6339111328125,"y":1368.39794921875,"id":"161","attributes":{"latitude":"45.633333","City":"Rhinelander","Code":"RHI","longitude":"-89.45"},"color":"rgb(208,28,139)","size":4.0},{"label":"Regional","x":-89.31497955322266,"y":-864.3543701171875,"id":"179","attributes":{"latitude":"35.333333","City":"Fort Smith","Code":"FSM","longitude":"-94.366667"},"color":"rgb(212,50,150)","size":6.56373929977417},{"label":"Mineta San Jose International Airport","x":-4617.0234375,"y":-452.3180236816406,"id":"135","attributes":{"latitude":"37.352778","City":"San Jose","Code":"SJC","longitude":"-121.919444"},"color":"rgb(212,54,152)","size":7.029923915863037},{"label":"Bemidji","x":-182.43441772460938,"y":1818.68701171875,"id":"16","attributes":{"latitude":"47.516667","City":"Bemidji","Code":"BJI","longitude":"-94.933333"},"color":"rgb(208,28,139)","size":4.0},{"label":"Quad-City","x":543.3499755859375,"y":419.4462585449219,"id":"175","attributes":{"latitude":"41.45","City":"Moline","Code":"MLI","longitude":"-90.516667"},"color":"rgb(213,61,155)","size":7.783172607421875},{"label":"Kent County Intl","x":1362.2542724609375,"y":737.2488403320312,"id":"106","attributes":{"latitude":"42.883333","City":"Grand Rapids","Code":"GRR","longitude":"-85.533333"},"color":"rgb(221,103,176)","size":12.509076118469238},{"label":"Baltimore/Washington International Thurgood Marshall","x":2819.027099609375,"y":-70.84818267822266,"id":"11","attributes":{"latitude":"39.175278","City":"Baltimore, MD","Code":"BWI","longitude":"-76.668333"},"color":"rgb(217,82,165)","size":10.122427940368652},{"label":"Lambert-St. Louis International","x":567.4515991210938,"y":-161.0190887451172,"id":"111","attributes":{"latitude":"38.748611","City":"St Louis","Code":"STL","longitude":"-90.37"},"color":"rgb(221,103,176)","size":12.569316864013672},{"label":"Lehigh Valley International","x":3020.83154296875,"y":245.6016082763672,"id":"112","attributes":{"latitude":"40.652222","City":"Allentown","Code":"ABE","longitude":"-75.440278"},"color":"rgb(209,35,142)","size":4.802759647369385},{"label":"Philadelphia International","x":3053.560302734375,"y":77.56974792480469,"id":"168","attributes":{"latitude":"39.871944","City":"Philadelphia","Code":"PHL","longitude":"-75.241111"},"color":"rgb(216,76,162)","size":9.479816436767578},{"label":"Bush Field","x":1948.359375,"y":-1255.836669921875,"id":"29","attributes":{"latitude":"33.366667","City":"Augusta","Code":"AGS","longitude":"-81.966667"},"color":"rgb(208,28,139)","size":4.0},{"label":"Evansville Regional Airport","x":1033.73388671875,"y":-310.2323303222656,"id":"61","attributes":{"latitude":"38.036944","City":"Evansville, IN","Code":"EVV","longitude":"-87.5325"},"color":"rgb(216,78,163)","size":9.670116424560547},{"label":"Lovell Field","x":1416.3912353515625,"y":-924.2823486328125,"id":"122","attributes":{"latitude":"35.035278","City":"Chattanooga,TN","Code":"CHA","longitude":"-85.203889"},"color":"rgb(213,60,154)","size":7.616281509399414},{"label":"International","x":1981.22509765625,"y":-2914.337646484375,"id":"91","attributes":{"latitude":"24.55","City":"Key West","Code":"EYW","longitude":"-81.766667"},"color":"rgb(208,33,141)","size":4.602021217346191},{"label":"John F Kennedy Intl","x":3293.114990234375,"y":241.51055908203125,"id":"102","attributes":{"latitude":"40.633333","City":"New York","Code":"JFK","longitude":"-73.783333"},"color":"rgb(214,63,156)","size":8.027450561523438},{"label":"Yampa Valley","x":-2143.87841796875,"y":216.87059020996094,"id":"233","attributes":{"latitude":"40.519444","City":"Hayden","Code":"HDN","longitude":"-106.869444"},"color":"rgb(208,28,139)","size":4.0},{"label":"Bay County","x":1337.60498046875,"y":-1864.9766845703125,"id":"14","attributes":{"latitude":"30.216667","City":"Panama City","Code":"PFN","longitude":"-85.683333"},"color":"rgb(210,39,144)","size":5.339255332946777},{"label":"Lincoln","x":-482.4710998535156,"y":288.6843566894531,"id":"114","attributes":{"latitude":"40.850833","City":"Lincoln, NE","Code":"LNK","longitude":"-96.759167"},"color":"rgb(210,40,145)","size":5.458184242248535},{"label":"Reno-Tahoe International","x":-4263.4892578125,"y":-2.0318870544433594,"id":"183","attributes":{"latitude":"39.499167","City":"Reno, NV","Code":"RNO","longitude":"-119.768056"},"color":"rgb(208,28,139)","size":4.0},{"label":"Mc Ghee Tyson","x":1627.9185791015625,"y":-739.6592407226562,"id":"128","attributes":{"latitude":"35.95","City":"Knoxville","Code":"TYS","longitude":"-83.916667"},"color":"rgb(218,89,169)","size":10.917428970336914},{"label":"Chisholm","x":162.65557861328125,"y":1786.28564453125,"id":"40","attributes":{"latitude":"47.383333","City":"Chisholm","Code":"HIB","longitude":"-92.833333"},"color":"rgb(208,28,139)","size":4.0},{"label":"Norfolk International Airport","x":2895.987548828125,"y":-545.638671875,"id":"157","attributes":{"latitude":"36.9","City":"Norfolk","Code":"ORF","longitude":"-76.2"},"color":"rgb(213,57,153)","size":7.370858192443848},{"label":"Municipal","x":-1981.832275390625,"y":1557.764892578125,"id":"144","attributes":{"latitude":"46.433333","City":"Miles City","Code":"MLS","longitude":"-105.883333"},"color":"rgb(208,28,139)","size":4.0},{"label":"Regional","x":1.0657249689102173,"y":-1435.2652587890625,"id":"182","attributes":{"latitude":"32.45","City":"Shreveport","Code":"SHV","longitude":"-93.816667"},"color":"rgb(211,49,149)","size":6.404341220855713},{"label":"Alexandria International","x":209.4435577392578,"y":-1652.5179443359375,"id":"5","attributes":{"latitude":"31.3275","City":"Alexandria, LA","Code":"AEX","longitude":"-92.548611"},"color":"rgb(210,43,146)","size":5.733916759490967},{"label":"Boise Air Terminal/Gowen Field","x":-3680.8984375,"y":890.8513793945312,"id":"24","attributes":{"latitude":"43.564444","City":"Boise, ID","Code":"BOI","longitude":"-116.222778"},"color":"rgb(222,106,177)","size":12.881118774414062},{"label":"Kingsley Field","x":-4586.43994140625,"y":577.4473266601562,"id":"108","attributes":{"latitude":"42.166667","City":"Klamath Falls","Code":"LMT","longitude":"-121.733333"},"color":"rgb(208,28,139)","size":4.0},{"label":"Logan International","x":3750.495849609375,"y":621.055908203125,"id":"115","attributes":{"latitude":"42.363056","City":"Boston","Code":"BOS","longitude":"-71.0"},"color":"rgb(220,96,173)","size":11.782145500183105},{"label":"Memphis International","x":633.7307739257812,"y":-917.9810791015625,"id":"130","attributes":{"latitude":"35.066667","City":"Memphis","Code":"MEM","longitude":"-89.966667"},"color":"rgb(139,199,115)","size":44.285072326660156},{"label":"Myrtle Beach Afb","x":2441.344970703125,"y":-1190.12353515625,"id":"151","attributes":{"latitude":"33.7","City":"Myrtle Beach","Code":"MYR","longitude":"-78.966667"},"color":"rgb(208,28,139)","size":4.0},{"label":"Midway","x":997.9924926757812,"y":492.7150573730469,"id":"134","attributes":{"latitude":"41.783333","City":"Chicago","Code":"MDW","longitude":"-87.75"},"color":"rgb(218,89,169)","size":10.945211410522461},{"label":"Fort Dodge Regional","x":-60.60300827026367,"y":662.942138671875,"id":"64","attributes":{"latitude":"42.551111","City":"Fort Dodge, IA","Code":"FOD","longitude":"-94.191944"},"color":"rgb(208,28,139)","size":4.0},{"label":"Regional","x":-1516.234619140625,"y":997.6060180664062,"id":"181","attributes":{"latitude":"44.033333","City":"Rapid City","Code":"RAP","longitude":"-103.05"},"color":"rgb(210,41,145)","size":5.546180248260498},{"label":"Bangor International Airport","x":4109.27978515625,"y":1173.992919921875,"id":"12","attributes":{"latitude":"44.8","City":"Bangor","Code":"BGR","longitude":"-68.816667"},"color":"rgb(209,35,142)","size":4.835488319396973},{"label":"Metropolitan Airport","x":2088.03857421875,"y":-1140.670654296875,"id":"131","attributes":{"latitude":"33.95","City":"Columbia, SC","Code":"CAE","longitude":"-81.116667"},"color":"rgb(210,41,145)","size":5.503151893615723},{"label":"Albuquerque International","x":-2101.107421875,"y":-923.2789306640625,"id":"4","attributes":{"latitude":"35.040278","City":"Albuquerque","Code":"ABQ","longitude":"-106.609167"},"color":"rgb(209,35,142)","size":4.80209493637085},{"label":"Love Field","x":-497.3975830078125,"y":-1356.65380859375,"id":"121","attributes":{"latitude":"32.852778","City":"Dallas","Code":"DAL","longitude":"-96.85"},"color":"rgb(208,28,139)","size":4.0},{"label":"Fanning Field","x":-2997.9306640625,"y":880.0206298828125,"id":"63","attributes":{"latitude":"43.516667","City":"Idaho Falls","Code":"IDA","longitude":"-112.066667"},"color":"rgb(212,51,150)","size":6.694089889526367},{"label":"Huntsville International - Carl T. Jones Field","x":1158.212890625,"y":-1003.9765014648438,"id":"86","attributes":{"latitude":"34.637222","City":"Huntsville, AL","Code":"HSV","longitude":"-86.775"},"color":"rgb(211,44,147)","size":5.91185188293457},{"label":"Devils Lake","x":-834.2711181640625,"y":1965.5194091796875,"id":"51","attributes":{"latitude":"48.116667","City":"Devils Lake","Code":"DVL","longitude":"-98.9"},"color":"rgb(209,35,142)","size":4.814535617828369},{"label":"Fort Lauderdale/hollywood International","x":2246.43310546875,"y":-2637.56640625,"id":"65","attributes":{"latitude":"26.0725","City":"Fort Lauderdale, FL","Code":"FLL","longitude":"-80.152778"},"color":"rgb(216,74,161)","size":9.197591781616211},{"label":"Charlotte Douglas","x":2118.16552734375,"y":-887.838134765625,"id":"35","attributes":{"latitude":"35.216667","City":"Charlotte","Code":"CLT","longitude":"-80.933333"},"color":"rgb(221,102,175)","size":12.358356475830078},{"label":"MBS International","x":1765.45263671875,"y":883.6720581054688,"id":"125","attributes":{"latitude":"43.532778","City":"Saginaw","Code":"MBS","longitude":"-83.079722"},"color":"rgb(211,45,147)","size":5.992902755737305},{"label":"George Bush Intercontinental","x":-249.48968505859375,"y":-1909.0858154296875,"id":"70","attributes":{"latitude":"29.984444","City":"Houston","Code":"IAH","longitude":"-95.341389"},"color":"rgb(175,215,158)","size":39.13821792602539},{"label":"Natrona County International Airport","x":-2077.325439453125,"y":742.7943725585938,"id":"153","attributes":{"latitude":"42.908056","City":"Casper, WY","Code":"CPR","longitude":"-106.464444"},"color":"rgb(208,28,139)","size":4.0},{"label":"Bismarck","x":-1138.2789306640625,"y":1641.4869384765625,"id":"21","attributes":{"latitude":"46.783333","City":"Bismarck","Code":"BIS","longitude":"-100.75"},"color":"rgb(210,44,147)","size":5.83389949798584},{"label":"North Bend","x":-5000.0,"y":857.3787841796875,"id":"158","attributes":{"latitude":"43.416667","City":"North Bend","Code":"OTH","longitude":"-124.25"},"color":"rgb(208,28,139)","size":4.0},{"label":"Savannah/Hilton Head","x":2074.344482421875,"y":-1496.8236083984375,"id":"198","attributes":{"latitude":"32.133333","City":"Savannah","Code":"SAV","longitude":"-81.2"},"color":"rgb(208,33,141)","size":4.592409133911133},{"label":"Melbourne International Airport","x":2167.46435546875,"y":-2263.316650390625,"id":"129","attributes":{"latitude":"28.1","City":"Melbourne","Code":"MLB","longitude":"-80.633333"},"color":"rgb(208,28,139)","size":4.0},{"label":"Gainesville Regional","x":1899.0606689453125,"y":-1966.1265869140625,"id":"67","attributes":{"latitude":"29.683333","City":"Gainesville","Code":"GNV","longitude":"-82.266667"},"color":"rgb(208,28,139)","size":4.0},{"label":"Waterloo","x":236.60345458984375,"y":662.6944580078125,"id":"224","attributes":{"latitude":"42.55","City":"Waterloo","Code":"ALO","longitude":"-92.383333"},"color":"rgb(209,37,143)","size":5.073634147644043},{"label":"International","x":217.4317169189453,"y":969.0640869140625,"id":"93","attributes":{"latitude":"43.908333","City":"Rochester","Code":"RST","longitude":"-92.5"},"color":"rgb(214,63,156)","size":8.000091552734375},{"label":"Central Wisconsin","x":680.336181640625,"y":1166.9188232421875,"id":"33","attributes":{"latitude":"44.769444","City":"Wausau","Code":"CWA","longitude":"-89.683056"},"color":"rgb(208,28,139)","size":4.0},{"label":"Lafayette Regional","x":301.650146484375,"y":-1867.142578125,"id":"110","attributes":{"latitude":"30.205278","City":"Lafayette, LA","Code":"LFT","longitude":"-91.9875"},"color":"rgb(213,59,154)","size":7.5235981941223145},{"label":"Kalamazoo/Battle Creek Intl","x":1359.19580078125,"y":592.6052856445312,"id":"104","attributes":{"latitude":"42.235","City":"Kalamazoo","Code":"AZO","longitude":"-85.551944"},"color":"rgb(217,79,164)","size":9.803245544433594},{"label":"Greenville","x":466.3895263671875,"y":-1234.070068359375,"id":"76","attributes":{"latitude":"33.477222","City":"Greenville","Code":"GLH","longitude":"-90.985"},"color":"rgb(208,28,139)","size":4.0},{"label":"Billings","x":-2417.302978515625,"y":1407.6241455078125,"id":"18","attributes":{"latitude":"45.8","City":"Billings","Code":"BIL","longitude":"-108.533333"},"color":"rgb(193,223,180)","size":36.55952453613281},{"label":"Gallatin Field","x":-2847.79833984375,"y":1402.3216552734375,"id":"68","attributes":{"latitude":"45.7775","City":"Bozeman","Code":"BZN","longitude":"-111.153056"},"color":"rgb(219,90,169)","size":11.013936996459961},{"label":"Elmira Corning Regional","x":2780.957275390625,"y":577.4473266601562,"id":"57","attributes":{"latitude":"42.166667","City":"Corning, NY","Code":"ELM","longitude":"-76.9"},"color":"rgb(208,28,139)","size":4.0},{"label":"Watertown","x":-546.6961059570312,"y":1201.0390625,"id":"225","attributes":{"latitude":"44.916667","City":"Watertown","Code":"ATY","longitude":"-97.15"},"color":"rgb(208,28,139)","size":4.0},{"label":"Rogue Valley International - Medford Airport","x":-4772.6796875,"y":621.8592529296875,"id":"188","attributes":{"latitude":"42.366667","City":"Medford","Code":"MFR","longitude":"-122.866667"},"color":"rgb(208,28,139)","size":4.0},{"label":"Intl Jetport","x":3865.526123046875,"y":910.2682495117188,"id":"95","attributes":{"latitude":"43.65","City":"Portland","Code":"PWM","longitude":"-70.3"},"color":"rgb(209,36,143)","size":4.955778121948242},{"label":"Pendleton","x":-4109.88720703125,"y":1384.0743408203125,"id":"167","attributes":{"latitude":"45.7","City":"Pendleton","Code":"PDT","longitude":"-118.833333"},"color":"rgb(208,28,139)","size":4.0},{"label":"Alpena County Regional","x":1688.1724853515625,"y":1239.7716064453125,"id":"6","attributes":{"latitude":"45.083333","City":"Alpena","Code":"APN","longitude":"-83.55"},"color":"rgb(208,28,139)","size":4.0},{"label":"Des Moines International","x":26.308399200439453,"y":437.8499450683594,"id":"49","attributes":{"latitude":"41.533889","City":"Des Moines, IA","Code":"DSM","longitude":"-93.663056"},"color":"rgb(219,89,169)","size":10.989083290100098},{"label":"Southwest Florida Reg","x":1983.0966796875,"y":-2551.459228515625,"id":"205","attributes":{"latitude":"26.542222","City":"Fort Myers","Code":"RSW","longitude":"-81.755278"},"color":"rgb(214,64,157)","size":8.132179260253906},{"label":"La Guardia","x":3279.420654296875,"y":270.4111022949219,"id":"109","attributes":{"latitude":"40.766667","City":"New York","Code":"LGA","longitude":"-73.866667"},"color":"rgb(219,94,171)","size":11.54301643371582},{"label":"Pittsburgh International","x":2233.286865234375,"y":210.80728149414062,"id":"171","attributes":{"latitude":"40.491389","City":"Pittsburgh, PA","Code":"PIT","longitude":"-80.232778"},"color":"rgb(219,95,172)","size":11.5794095993042},{"label":"Chippewa Valley Regional Airport","x":384.36212158203125,"y":1189.248046875,"id":"39","attributes":{"latitude":"44.865833","City":"Eau Claire, WI","Code":"EAU","longitude":"-91.484167"},"color":"rgb(208,28,139)","size":4.0},{"label":"Greater Binghamton","x":2932.185546875,"y":586.7494506835938,"id":"73","attributes":{"latitude":"42.208611","City":"Binghamton, NY","Code":"BGM","longitude":"-75.979722"},"color":"rgb(208,28,139)","size":4.0},{"label":"Orlando International","x":2056.451171875,"y":-2201.8505859375,"id":"163","attributes":{"latitude":"28.429444","City":"Orlando","Code":"MCO","longitude":"-81.308889"},"color":"rgb(213,60,155)","size":7.710158348083496},{"label":"Chicago O\u0027hare International","x":972.5671997070312,"y":535.8156127929688,"id":"37","attributes":{"latitude":"41.978611","City":"Chicago, Il","Code":"ORD","longitude":"-87.904722"},"color":"rgb(225,125,187)","size":15.022455215454102},{"label":"Oakland International Airport","x":-4665.86572265625,"y":-376.90972900390625,"id":"160","attributes":{"latitude":"37.716667","City":"Oakland","Code":"OAK","longitude":"-122.216667"},"color":"rgb(208,28,139)","size":4.0},{"label":"Cherry Capital Airport","x":1354.220458984375,"y":1160.42626953125,"id":"36","attributes":{"latitude":"44.741389","City":"Traverse City","Code":"TVC","longitude":"-85.582222"},"color":"rgb(216,78,163)","size":9.676576614379883},{"label":"Duluth International","x":269.4691467285156,"y":1653.4910888671875,"id":"53","attributes":{"latitude":"46.833333","City":"Duluth","Code":"DLH","longitude":"-92.183333"},"color":"rgb(214,61,155)","size":7.8206377029418945},{"label":"International","x":-1225.9207763671875,"y":2002.49462890625,"id":"92","attributes":{"latitude":"48.266667","City":"Minot","Code":"MOT","longitude":"-101.283333"},"color":"rgb(209,34,141)","size":4.678074836730957},{"label":"Sky Harbor Intl","x":-2992.452880859375,"y":-1242.714111328125,"id":"203","attributes":{"latitude":"33.433333","City":"Phoenix","Code":"PHX","longitude":"-112.033333"},"color":"rgb(214,66,158)","size":8.370037078857422},{"label":"Piedmont Triad Intl","x":2281.855224609375,"y":-709.633544921875,"id":"169","attributes":{"latitude":"36.097778","City":"Greensboro, NC","Code":"GSO","longitude":"-79.937222"},"color":"rgb(213,60,155)","size":7.71230411529541},{"label":"Hopkins International","x":1967.5311279296875,"y":412.13995361328125,"id":"84","attributes":{"latitude":"41.416667","City":"Cleveland","Code":"CLE","longitude":"-81.85"},"color":"rgb(244,235,241)","size":27.366849899291992},{"label":"San Diego International Airport","x":-3838.7451171875,"y":-1380.0030517578125,"id":"194","attributes":{"latitude":"32.733333","City":"San Diego","Code":"SAN","longitude":"-117.183333"},"color":"rgb(213,59,154)","size":7.531639099121094},{"label":"Tallahassee Regional Airport","x":1556.6640625,"y":-1830.7679443359375,"id":"212","attributes":{"latitude":"30.396389","City":"Tallahassee","Code":"TLH","longitude":"-84.350278"},"color":"rgb(209,37,143)","size":5.037156105041504},{"label":"Jackson-evers","x":615.7916259765625,"y":-1462.290771484375,"id":"96","attributes":{"latitude":"32.311111","City":"Jackson","Code":"JAN","longitude":"-90.075833"},"color":"rgb(216,73,161)","size":9.118606567382812},{"label":"Pierre","x":-1061.59228515625,"y":1077.84375,"id":"170","attributes":{"latitude":"44.383333","City":"Pierre","Code":"PIR","longitude":"-100.283333"},"color":"rgb(208,28,139)","size":4.0},{"label":"Greater Rochester International","x":2654.013671875,"y":790.1767578125,"id":"75","attributes":{"latitude":"43.118889","City":"Rochester, NY","Code":"ROC","longitude":"-77.6725"},"color":"rgb(215,67,158)","size":8.457763671875},{"label":"Gulfport-Biloxi International","x":781.6265258789062,"y":-1830.080078125,"id":"78","attributes":{"latitude":"30.4","City":"Gulfport","Code":"GPT","longitude":"-89.066667"},"color":"rgb(208,33,141)","size":4.616311550140381},{"label":"Muskegon","x":1247.2242431640625,"y":800.9373779296875,"id":"150","attributes":{"latitude":"43.166667","City":"Muskegon","Code":"MKG","longitude":"-86.233333"},"color":"rgb(209,36,143)","size":5.003807544708252},{"label":"Blue Grass","x":1514.6689453125,"y":-310.34783935546875,"id":"22","attributes":{"latitude":"38.036389","City":"Lexington","Code":"LEX","longitude":"-84.605833"},"color":"rgb(219,94,171)","size":11.479238510131836},{"label":"San Antonio International","x":-763.0621337890625,"y":-1994.477783203125,"id":"193","attributes":{"latitude":"29.533333","City":"San Antonio","Code":"SAT","longitude":"-98.466667"},"color":"rgb(212,55,152)","size":7.134401321411133},{"label":"Brainerd Lakes Regional","x":-51.336849212646484,"y":1550.2166748046875,"id":"26","attributes":{"latitude":"46.401667","City":"Brainerd, MN","Code":"BRD","longitude":"-94.135556"},"color":"rgb(209,35,142)","size":4.814535617828369},{"label":"Austin-bergstrom International","x":-632.1469116210938,"y":-1869.2021484375,"id":"9","attributes":{"latitude":"30.194444","City":"Austin","Code":"AUS","longitude":"-97.67"},"color":"rgb(217,83,166)","size":10.253747940063477},{"label":"Tompkins County","x":2852.16650390625,"y":647.831298828125,"id":"215","attributes":{"latitude":"42.483333","City":"Ithaca","Code":"ITH","longitude":"-76.466667"},"color":"rgb(210,42,146)","size":5.62939453125},{"label":"Westchester County Apt","x":3306.80908203125,"y":335.6501159667969,"id":"226","attributes":{"latitude":"41.066667","City":"White Plains","Code":"HPN","longitude":"-73.7"},"color":"rgb(209,35,142)","size":4.837333679199219},{"label":"T. F. Green Airport","x":3679.287109375,"y":481.700439453125,"id":"211","attributes":{"latitude":"41.733333","City":"Providence","Code":"PVD","longitude":"-71.433333"},"color":"rgb(210,41,145)","size":5.5214738845825195},{"label":"John Wayne","x":-3951.036376953125,"y":-1196.705810546875,"id":"103","attributes":{"latitude":"33.666667","City":"Santa Ana, CA","Code":"SNA","longitude":"-117.866667"},"color":"rgb(212,52,150)","size":6.717709541320801},{"label":"International","x":2241.412109375,"y":558.98388671875,"id":"88","attributes":{"latitude":"42.083333","City":"Erie","Code":"ERI","longitude":"-80.183333"},"color":"rgb(211,46,148)","size":6.139931678771973},{"label":"Emmet County","x":1482.76171875,"y":1352.7401123046875,"id":"58","attributes":{"latitude":"45.566667","City":"Pellston","Code":"PLN","longitude":"-84.8"},"color":"rgb(208,28,139)","size":4.0},{"label":"San Luis County Regional Airport","x":-4407.09375,"y":-883.758544921875,"id":"196","attributes":{"latitude":"35.236944","City":"San Luis Obispo","Code":"SBP","longitude":"-120.641944"},"color":"rgb(208,28,139)","size":4.0},{"label":"Manchester-boston Regional Airport","x":3678.921875,"y":748.279541015625,"id":"123","attributes":{"latitude":"42.9325","City":"Manchester, NH","Code":"MHT","longitude":"-71.435556"},"color":"rgb(210,44,147)","size":5.844809532165527},{"label":"Wilkes-Barre/Scranton International Airport","x":2974.317626953125,"y":394.9850158691406,"id":"228","attributes":{"latitude":"41.338333","City":"Wilkes-Barre/Scranton, PA","Code":"AVP","longitude":"-75.723333"},"color":"rgb(208,28,139)","size":4.0},{"label":"Miami International Airport","x":2227.7177734375,"y":-2690.403076171875,"id":"132","attributes":{"latitude":"25.783333","City":"Miami","Code":"MIA","longitude":"-80.266667"},"color":"rgb(217,83,166)","size":10.212699890136719},{"label":"Monterey Peninsula","x":-4605.61181640625,"y":-610.5765380859375,"id":"139","attributes":{"latitude":"36.583333","City":"Monterey","Code":"MRY","longitude":"-121.85"},"color":"rgb(208,28,139)","size":4.0},{"label":"Sun Valley","x":-3367.669921875,"y":876.2445068359375,"id":"209","attributes":{"latitude":"43.5","City":"Sun Valley","Code":"SUN","longitude":"-114.316667"},"color":"rgb(208,28,139)","size":4.0},{"label":"Barkley Regional","x":829.8751220703125,"y":-512.6677856445312,"id":"13","attributes":{"latitude":"37.060278","City":"Paducah, KY","Code":"PAH","longitude":"-88.773056"},"color":"rgb(210,42,145)","size":5.595125675201416},{"label":"Municipal","x":99.66287994384766,"y":-1883.9837646484375,"id":"142","attributes":{"latitude":"30.116667","City":"Lake Charles","Code":"LCH","longitude":"-93.216667"},"color":"rgb(208,28,139)","size":4.0}],"edges":[{"source":"173","target":"41","id":"898","attributes":{},"color":"rgb(222,236,216)","size":1.0},{"source":"194","target":"118","id":"1061","attributes":{},"color":"rgb(223,150,192)","size":1.0},{"source":"50","target":"48","id":"148","attributes":{},"color":"rgb(152,126,107)","size":1.0},{"source":"136","target":"99","id":"678","attributes":{},"color":"rgb(143,103,90)","size":1.0},{"source":"131","target":"50","id":"594","attributes":{},"color":"rgb(149,109,99)","size":1.0},{"source":"194","target":"50","id":"1057","attributes":{},"color":"rgb(151,118,103)","size":1.0},{"source":"27","target":"98","id":"47","attributes":{},"color":"rgb(213,59,154)","size":1.0},{"source":"14","target":"172","id":"30","attributes":{},"color":"rgb(218,87,168)","size":1.0},{"source":"136","target":"40","id":"643","attributes":{},"color":"rgb(142,100,88)","size":1.0},{"source":"35","target":"103","id":"60","attributes":{},"color":"rgb(216,77,162)","size":1.0},{"source":"192","target":"137","id":"1033","attributes":{},"color":"rgb(228,142,194)","size":1.0},{"source":"41","target":"28","id":"83","attributes":{},"color":"rgb(220,137,184)","size":1.0},{"source":"177","target":"118","id":"936","attributes":{},"color":"rgb(220,134,184)","size":1.0},{"source":"187","target":"173","id":"975","attributes":{},"color":"rgb(210,130,172)","size":1.0},{"source":"136","target":"101","id":"679","attributes":{},"color":"rgb(143,105,91)","size":1.0},{"source":"203","target":"173","id":"1157","attributes":{},"color":"rgb(213,149,181)","size":1.0},{"source":"203","target":"136","id":"1154","attributes":{},"color":"rgb(145,119,98)","size":1.0},{"source":"229","target":"70","id":"1284","attributes":{},"color":"rgb(193,132,153)","size":1.0},{"source":"86","target":"49","id":"323","attributes":{},"color":"rgb(215,66,158)","size":1.0},{"source":"98","target":"80","id":"387","attributes":{},"color":"rgb(158,127,113)","size":1.0},{"source":"219","target":"41","id":"1247","attributes":{},"color":"rgb(223,156,193)","size":1.0},{"source":"111","target":"84","id":"458","attributes":{},"color":"rgb(232,169,208)","size":1.0},{"source":"154","target":"25","id":"752","attributes":{},"color":"rgb(229,147,197)","size":1.0},{"source":"204","target":"57","id":"1163","attributes":{},"color":"rgb(213,61,155)","size":1.0},{"source":"154","target":"97","id":"772","attributes":{},"color":"rgb(230,152,199)","size":1.0},{"source":"90","target":"45","id":"350","attributes":{},"color":"rgb(216,76,162)","size":1.0},{"source":"207","target":"136","id":"1192","attributes":{},"color":"rgb(145,116,96)","size":1.0},{"source":"210","target":"87","id":"1201","attributes":{},"color":"rgb(221,106,177)","size":1.0},{"source":"213","target":"87","id":"1223","attributes":{},"color":"rgb(222,109,179)","size":1.0},{"source":"87","target":"50","id":"334","attributes":{},"color":"rgb(158,159,124)","size":1.0},{"source":"200","target":"166","id":"1131","attributes":{},"color":"rgb(171,112,123)","size":1.0},{"source":"221","target":"50","id":"1257","attributes":{},"color":"rgb(149,110,99)","size":1.0},{"source":"56","target":"192","id":"162","attributes":{},"color":"rgb(227,136,192)","size":1.0},{"source":"97","target":"68","id":"380","attributes":{},"color":"rgb(216,76,162)","size":1.0},{"source":"128","target":"50","id":"536","attributes":{},"color":"rgb(153,133,111)","size":1.0},{"source":"136","target":"124","id":"692","attributes":{},"color":"rgb(142,100,88)","size":1.0},{"source":"211","target":"41","id":"1206","attributes":{},"color":"rgb(220,140,186)","size":1.0},{"source":"148","target":"118","id":"723","attributes":{},"color":"rgb(220,134,184)","size":1.0},{"source":"154","target":"48","id":"760","attributes":{},"color":"rgb(231,158,203)","size":1.0},{"source":"168","target":"80","id":"850","attributes":{},"color":"rgb(158,129,114)","size":1.0},{"source":"53","target":"152","id":"155","attributes":{},"color":"rgb(217,82,165)","size":1.0},{"source":"200","target":"66","id":"1108","attributes":{},"color":"rgb(171,112,123)","size":1.0},{"source":"200","target":"103","id":"1117","attributes":{},"color":"rgb(173,124,129)","size":1.0},{"source":"136","target":"35","id":"639","attributes":{},"color":"rgb(149,137,106)","size":1.0},{"source":"224","target":"136","id":"1271","attributes":{},"color":"rgb(143,104,90)","size":1.0},{"source":"70","target":"43","id":"202","attributes":{},"color":"rgb(192,125,150)","size":1.0},{"source":"112","target":"84","id":"464","attributes":{},"color":"rgb(226,135,191)","size":1.0},{"source":"200","target":"24","id":"1101","attributes":{},"color":"rgb(178,151,142)","size":1.0},{"source":"203","target":"70","id":"1150","attributes":{},"color":"rgb(194,140,158)","size":1.0},{"source":"41","target":"214","id":"92","attributes":{},"color":"rgb(219,134,183)","size":1.0},{"source":"136","target":"16","id":"628","attributes":{},"color":"rgb(142,100,88)","size":1.0},{"source":"84","target":"28","id":"301","attributes":{},"color":"rgb(226,135,191)","size":1.0},{"source":"125","target":"119","id":"519","attributes":{},"color":"rgb(212,54,151)","size":1.0},{"source":"191","target":"70","id":"1005","attributes":{},"color":"rgb(194,138,156)","size":1.0},{"source":"109","target":"48","id":"440","attributes":{},"color":"rgb(217,84,166)","size":1.0},{"source":"69","target":"213","id":"194","attributes":{},"color":"rgb(218,86,168)","size":1.0},{"source":"45","target":"180","id":"109","attributes":{},"color":"rgb(215,73,161)","size":1.0},{"source":"119","target":"50","id":"491","attributes":{},"color":"rgb(151,120,104)","size":1.0},{"source":"110","target":"70","id":"451","attributes":{},"color":"rgb(194,137,156)","size":1.0},{"source":"200","target":"80","id":"1113","attributes":{},"color":"rgb(117,189,87)","size":1.0},{"source":"120","target":"92","id":"503","attributes":{},"color":"rgb(214,61,155)","size":1.0},{"source":"200","target":"116","id":"1118","attributes":{},"color":"rgb(171,112,123)","size":1.0},{"source":"96","target":"84","id":"372","attributes":{},"color":"rgb(230,154,201)","size":1.0},{"source":"130","target":"70","id":"567","attributes":{},"color":"rgb(157,207,136)","size":1.0},{"source":"118","target":"115","id":"488","attributes":{},"color":"rgb(226,168,201)","size":1.0},{"source":"70","target":"56","id":"206","attributes":{},"color":"rgb(191,121,148)","size":1.0},{"source":"120","target":"96","id":"504","attributes":{},"color":"rgb(217,81,165)","size":1.0},{"source":"136","target":"80","id":"667","attributes":{},"color":"rgb(88,177,52)","size":1.0},{"source":"163","target":"50","id":"814","attributes":{},"color":"rgb(151,118,104)","size":1.0},{"source":"192","target":"48","id":"1015","attributes":{},"color":"rgb(231,159,203)","size":1.0},{"source":"84","target":"27","id":"300","attributes":{},"color":"rgb(227,140,194)","size":1.0},{"source":"136","target":"90","id":"673","attributes":{},"color":"rgb(144,110,93)","size":1.0},{"source":"195","target":"154","id":"1079","attributes":{},"color":"rgb(231,159,203)","size":1.0},{"source":"130","target":"13","id":"547","attributes":{},"color":"rgb(174,120,130)","size":1.0},{"source":"159","target":"50","id":"799","attributes":{},"color":"rgb(151,121,105)","size":1.0},{"source":"154","target":"127","id":"782","attributes":{},"color":"rgb(230,155,201)","size":1.0},{"source":"189","target":"80","id":"987","attributes":{},"color":"rgb(160,143,121)","size":1.0},{"source":"112","target":"50","id":"463","attributes":{},"color":"rgb(149,106,97)","size":1.0},{"source":"136","target":"120","id":"691","attributes":{},"color":"rgb(148,130,103)","size":1.0},{"source":"169","target":"130","id":"863","attributes":{},"color":"rgb(176,129,135)","size":1.0},{"source":"86","target":"50","id":"324","attributes":{},"color":"rgb(150,110,100)","size":1.0},{"source":"87","target":"65","id":"335","attributes":{},"color":"rgb(222,108,178)","size":1.0},{"source":"27","target":"41","id":"46","attributes":{},"color":"rgb(221,142,187)","size":1.0},{"source":"189","target":"200","id":"997","attributes":{},"color":"rgb(177,151,142)","size":1.0},{"source":"80","target":"37","id":"261","attributes":{},"color":"rgb(162,153,126)","size":1.0},{"source":"109","target":"45","id":"439","attributes":{},"color":"rgb(220,99,173)","size":1.0},{"source":"105","target":"180","id":"425","attributes":{},"color":"rgb(216,75,162)","size":1.0},{"source":"131","target":"130","id":"596","attributes":{},"color":"rgb(174,120,130)","size":1.0},{"source":"50","target":"8","id":"125","attributes":{},"color":"rgb(149,108,98)","size":1.0},{"source":"70","target":"77","id":"210","attributes":{},"color":"rgb(194,138,157)","size":1.0},{"source":"50","target":"9","id":"126","attributes":{},"color":"rgb(153,130,109)","size":1.0},{"source":"81","target":"13","id":"286","attributes":{},"color":"rgb(209,35,142)","size":1.0},{"source":"200","target":"160","id":"1129","attributes":{},"color":"rgb(171,112,123)","size":1.0},{"source":"130","target":"11","id":"546","attributes":{},"color":"rgb(178,140,140)","size":1.0},{"source":"216","target":"200","id":"1234","attributes":{},"color":"rgb(171,112,123)","size":1.0},{"source":"125","target":"35","id":"516","attributes":{},"color":"rgb(216,73,161)","size":1.0},{"source":"130","target":"34","id":"552","attributes":{},"color":"rgb(175,123,131)","size":1.0},{"source":"97","target":"134","id":"382","attributes":{},"color":"rgb(216,75,162)","size":1.0},{"source":"68","target":"50","id":"183","attributes":{},"color":"rgb(154,133,111)","size":1.0},{"source":"192","target":"160","id":"1037","attributes":{},"color":"rgb(227,136,192)","size":1.0},{"source":"96","target":"98","id":"373","attributes":{},"color":"rgb(216,73,161)","size":1.0},{"source":"189","target":"118","id":"991","attributes":{},"color":"rgb(227,173,203)","size":1.0},{"source":"157","target":"41","id":"792","attributes":{},"color":"rgb(222,148,190)","size":1.0},{"source":"105","target":"84","id":"420","attributes":{},"color":"rgb(233,172,210)","size":1.0},{"source":"154","target":"27","id":"753","attributes":{},"color":"rgb(228,143,195)","size":1.0},{"source":"164","target":"185","id":"835","attributes":{},"color":"rgb(218,85,167)","size":1.0},{"source":"208","target":"149","id":"1196","attributes":{},"color":"rgb(209,40,144)","size":1.0},{"source":"226","target":"105","id":"1275","attributes":{},"color":"rgb(215,72,160)","size":1.0},{"source":"163","target":"20","id":"812","attributes":{},"color":"rgb(214,67,158)","size":1.0},{"source":"41","target":"226","id":"94","attributes":{},"color":"rgb(220,137,184)","size":1.0},{"source":"200","target":"156","id":"1128","attributes":{},"color":"rgb(171,112,123)","size":1.0},{"source":"217","target":"130","id":"1237","attributes":{},"color":"rgb(177,133,137)","size":1.0},{"source":"125","target":"59","id":"518","attributes":{},"color":"rgb(215,72,160)","size":1.0},{"source":"130","target":"14","id":"548","attributes":{},"color":"rgb(174,119,129)","size":1.0},{"source":"136","target":"37","id":"641","attributes":{},"color":"rgb(151,148,112)","size":1.0},{"source":"82","target":"229","id":"293","attributes":{},"color":"rgb(213,62,155)","size":1.0},{"source":"106","target":"79","id":"431","attributes":{},"color":"rgb(218,87,168)","size":1.0},{"source":"104","target":"185","id":"411","attributes":{},"color":"rgb(217,80,164)","size":1.0},{"source":"87","target":"230","id":"343","attributes":{},"color":"rgb(218,85,167)","size":1.0},{"source":"50","target":"6","id":"124","attributes":{},"color":"rgb(148,102,96)","size":1.0},{"source":"172","target":"130","id":"890","attributes":{},"color":"rgb(183,167,153)","size":1.0},{"source":"24","target":"45","id":"44","attributes":{},"color":"rgb(221,105,176)","size":1.0},{"source":"154","target":"128","id":"783","attributes":{},"color":"rgb(232,165,206)","size":1.0},{"source":"181","target":"93","id":"950","attributes":{},"color":"rgb(212,52,150)","size":1.0},{"source":"87","target":"10","id":"329","attributes":{},"color":"rgb(223,116,182)","size":1.0},{"source":"123","target":"80","id":"512","attributes":{},"color":"rgb(155,113,106)","size":1.0},{"source":"136","target":"50","id":"650","attributes":{},"color":"rgb(83,174,45)","size":1.0},{"source":"197","target":"80","id":"1085","attributes":{},"color":"rgb(154,107,103)","size":1.0},{"source":"103","target":"41","id":"405","attributes":{},"color":"rgb(221,146,188)","size":1.0},{"source":"189","target":"24","id":"981","attributes":{},"color":"rgb(221,105,177)","size":1.0},{"source":"84","target":"50","id":"306","attributes":{},"color":"rgb(166,206,147)","size":1.0},{"source":"200","target":"17","id":"1098","attributes":{},"color":"rgb(171,112,123)","size":1.0},{"source":"111","target":"125","id":"460","attributes":{},"color":"rgb(216,74,161)","size":1.0},{"source":"130","target":"86","id":"576","attributes":{},"color":"rgb(175,121,131)","size":1.0},{"source":"194","target":"192","id":"1066","attributes":{},"color":"rgb(229,151,199)","size":1.0},{"source":"50","target":"45","id":"147","attributes":{},"color":"rgb(155,140,114)","size":1.0},{"source":"185","target":"130","id":"968","attributes":{},"color":"rgb(178,140,140)","size":1.0},{"source":"21","target":"111","id":"38","attributes":{},"color":"rgb(215,73,161)","size":1.0},{"source":"80","target":"79","id":"278","attributes":{},"color":"rgb(157,126,113)","size":1.0},{"source":"171","target":"44","id":"871","attributes":{},"color":"rgb(220,101,175)","size":1.0},{"source":"154","target":"41","id":"758","attributes":{},"color":"rgb(238,241,235)","size":1.0},{"source":"154","target":"28","id":"754","attributes":{},"color":"rgb(227,138,193)","size":1.0},{"source":"180","target":"70","id":"944","attributes":{},"color":"rgb(192,128,152)","size":1.0},{"source":"168","target":"103","id":"853","attributes":{},"color":"rgb(214,64,156)","size":1.0},{"source":"200","target":"70","id":"1111","attributes":{},"color":"rgb(154,206,133)","size":1.0},{"source":"151","target":"50","id":"728","attributes":{},"color":"rgb(148,102,96)","size":1.0},{"source":"233","target":"136","id":"1294","attributes":{},"color":"rgb(142,100,88)","size":1.0},{"source":"62","target":"40","id":"176","attributes":{},"color":"rgb(208,28,139)","size":1.0},{"source":"34","target":"45","id":"56","attributes":{},"color":"rgb(216,75,162)","size":1.0},{"source":"84","target":"190","id":"318","attributes":{},"color":"rgb(226,135,192)","size":1.0},{"source":"197","target":"154","id":"1086","attributes":{},"color":"rgb(227,137,192)","size":1.0},{"source":"130","target":"101","id":"580","attributes":{},"color":"rgb(174,119,129)","size":1.0},{"source":"154","target":"118","id":"778","attributes":{},"color":"rgb(239,241,237)","size":1.0},{"source":"200","target":"148","id":"1126","attributes":{},"color":"rgb(171,112,123)","size":1.0},{"source":"109","target":"87","id":"446","attributes":{},"color":"rgb(223,118,183)","size":1.0},{"source":"181","target":"136","id":"951","attributes":{},"color":"rgb(143,106,91)","size":1.0},{"source":"96","target":"27","id":"368","attributes":{},"color":"rgb(213,59,154)","size":1.0},{"source":"202","target":"79","id":"1144","attributes":{},"color":"rgb(212,53,151)","size":1.0},{"source":"221","target":"32","id":"1255","attributes":{},"color":"rgb(209,39,144)","size":1.0},{"source":"70","target":"19","id":"198","attributes":{},"color":"rgb(194,139,157)","size":1.0},{"source":"179","target":"122","id":"941","attributes":{},"color":"rgb(212,55,152)","size":1.0},{"source":"115","target":"45","id":"469","attributes":{},"color":"rgb(220,100,174)","size":1.0},{"source":"1","target":"61","id":"2","attributes":{},"color":"rgb(213,62,155)","size":1.0},{"source":"215","target":"50","id":"1230","attributes":{},"color":"rgb(149,109,99)","size":1.0},{"source":"136","target":"134","id":"699","attributes":{},"color":"rgb(147,130,103)","size":1.0},{"source":"87","target":"80","id":"337","attributes":{},"color":"rgb(164,162,130)","size":1.0},{"source":"154","target":"19","id":"750","attributes":{},"color":"rgb(230,152,200)","size":1.0},{"source":"205","target":"41","id":"1168","attributes":{},"color":"rgb(222,152,192)","size":1.0},{"source":"198","target":"152","id":"1092","attributes":{},"color":"rgb(214,68,158)","size":1.0},{"source":"84","target":"192","id":"319","attributes":{},"color":"rgb(245,239,243)","size":1.0},{"source":"171","target":"30","id":"869","attributes":{},"color":"rgb(216,79,164)","size":1.0},{"source":"173","target":"23","id":"896","attributes":{},"color":"rgb(210,130,172)","size":1.0},{"source":"61","target":"50","id":"172","attributes":{},"color":"rgb(152,127,108)","size":1.0},{"source":"78","target":"84","id":"239","attributes":{},"color":"rgb(226,134,191)","size":1.0},{"source":"35","target":"69","id":"59","attributes":{},"color":"rgb(220,99,174)","size":1.0},{"source":"70","target":"48","id":"204","attributes":{},"color":"rgb(195,145,160)","size":1.0},{"source":"192","target":"9","id":"1010","attributes":{},"color":"rgb(231,163,205)","size":1.0},{"source":"168","target":"136","id":"856","attributes":{},"color":"rgb(146,124,100)","size":1.0},{"source":"80","target":"52","id":"269","attributes":{},"color":"rgb(154,105,102)","size":1.0},{"source":"229","target":"41","id":"1282","attributes":{},"color":"rgb(221,144,188)","size":1.0},{"source":"178","target":"154","id":"939","attributes":{},"color":"rgb(227,135,191)","size":1.0},{"source":"53","target":"226","id":"158","attributes":{},"color":"rgb(211,48,148)","size":1.0},{"source":"130","target":"45","id":"557","attributes":{},"color":"rgb(180,151,145)","size":1.0},{"source":"163","target":"87","id":"818","attributes":{},"color":"rgb(220,101,175)","size":1.0},{"source":"14","target":"159","id":"29","attributes":{},"color":"rgb(212,52,150)","size":1.0},{"source":"136","target":"26","id":"634","attributes":{},"color":"rgb(143,103,90)","size":1.0},{"source":"22","target":"106","id":"41","attributes":{},"color":"rgb(220,98,173)","size":1.0},{"source":"44","target":"71","id":"100","attributes":{},"color":"rgb(216,74,161)","size":1.0},{"source":"70","target":"50","id":"205","attributes":{},"color":"rgb(132,196,105)","size":1.0},{"source":"163","target":"154","id":"826","attributes":{},"color":"rgb(229,151,199)","size":1.0},{"source":"75","target":"49","id":"226","attributes":{},"color":"rgb(217,78,163)","size":1.0},{"source":"120","target":"9","id":"497","attributes":{},"color":"rgb(218,86,167)","size":1.0},{"source":"151","target":"136","id":"729","attributes":{},"color":"rgb(142,100,88)","size":1.0},{"source":"229","target":"136","id":"1287","attributes":{},"color":"rgb(144,110,93)","size":1.0},{"source":"171","target":"219","id":"880","attributes":{},"color":"rgb(217,83,166)","size":1.0},{"source":"7","target":"177","id":"9","attributes":{},"color":"rgb(208,28,139)","size":1.0},{"source":"195","target":"115","id":"1075","attributes":{},"color":"rgb(218,86,168)","size":1.0},{"source":"203","target":"189","id":"1158","attributes":{},"color":"rgb(217,85,167)","size":1.0},{"source":"80","target":"67","id":"272","attributes":{},"color":"rgb(154,105,102)","size":1.0},{"source":"115","target":"87","id":"473","attributes":{},"color":"rgb(224,119,184)","size":1.0},{"source":"136","target":"125","id":"693","attributes":{},"color":"rgb(144,108,92)","size":1.0},{"source":"44","target":"77","id":"101","attributes":{},"color":"rgb(218,85,167)","size":1.0},{"source":"206","target":"102","id":"1181","attributes":{},"color":"rgb(212,52,150)","size":1.0},{"source":"192","target":"103","id":"1027","attributes":{},"color":"rgb(229,148,197)","size":1.0},{"source":"136","target":"87","id":"672","attributes":{},"color":"rgb(152,157,116)","size":1.0},{"source":"105","target":"35","id":"414","attributes":{},"color":"rgb(221,105,177)","size":1.0},{"source":"88","target":"32","id":"344","attributes":{},"color":"rgb(210,40,145)","size":1.0},{"source":"180","target":"171","id":"948","attributes":{},"color":"rgb(214,68,159)","size":1.0},{"source":"154","target":"50","id":"761","attributes":{},"color":"rgb(167,209,148)","size":1.0},{"source":"164","target":"80","id":"832","attributes":{},"color":"rgb(159,135,117)","size":1.0},{"source":"176","target":"41","id":"923","attributes":{},"color":"rgb(225,167,199)","size":1.0},{"source":"205","target":"84","id":"1173","attributes":{},"color":"rgb(229,149,199)","size":1.0},{"source":"128","target":"41","id":"534","attributes":{},"color":"rgb(224,164,198)","size":1.0},{"source":"169","target":"159","id":"866","attributes":{},"color":"rgb(213,62,156)","size":1.0},{"source":"102","target":"118","id":"400","attributes":{},"color":"rgb(223,152,193)","size":1.0},{"source":"203","target":"192","id":"1159","attributes":{},"color":"rgb(230,155,201)","size":1.0},{"source":"200","target":"195","id":"1141","attributes":{},"color":"rgb(175,136,135)","size":1.0},{"source":"98","target":"84","id":"388","attributes":{},"color":"rgb(230,154,201)","size":1.0},{"source":"84","target":"48","id":"305","attributes":{},"color":"rgb(230,155,201)","size":1.0},{"source":"234","target":"164","id":"1296","attributes":{},"color":"rgb(213,58,154)","size":1.0},{"source":"176","target":"138","id":"931","attributes":{},"color":"rgb(214,65,157)","size":1.0},{"source":"41","target":"22","id":"81","attributes":{},"color":"rgb(225,167,199)","size":1.0},{"source":"109","target":"41","id":"438","attributes":{},"color":"rgb(225,167,199)","size":1.0},{"source":"80","target":"10","id":"249","attributes":{},"color":"rgb(159,136,118)","size":1.0},{"source":"193","target":"50","id":"1048","attributes":{},"color":"rgb(150,116,102)","size":1.0},{"source":"65","target":"206","id":"181","attributes":{},"color":"rgb(213,57,153)","size":1.0},{"source":"50","target":"36","id":"142","attributes":{},"color":"rgb(152,127,108)","size":1.0},{"source":"195","target":"136","id":"1077","attributes":{},"color":"rgb(146,124,100)","size":1.0},{"source":"123","target":"41","id":"510","attributes":{},"color":"rgb(220,142,187)","size":1.0},{"source":"70","target":"65","id":"208","attributes":{},"color":"rgb(195,144,159)","size":1.0},{"source":"200","target":"188","id":"1136","attributes":{},"color":"rgb(171,112,123)","size":1.0},{"source":"197","target":"50","id":"1084","attributes":{},"color":"rgb(148,105,97)","size":1.0},{"source":"97","target":"61","id":"379","attributes":{},"color":"rgb(215,70,159)","size":1.0},{"source":"173","target":"167","id":"916","attributes":{},"color":"rgb(210,130,172)","size":1.0},{"source":"164","target":"136","id":"834","attributes":{},"color":"rgb(148,130,103)","size":1.0},{"source":"195","target":"118","id":"1076","attributes":{},"color":"rgb(224,158,196)","size":1.0},{"source":"205","target":"175","id":"1179","attributes":{},"color":"rgb(213,62,156)","size":1.0},{"source":"211","target":"50","id":"1207","attributes":{},"color":"rgb(149,109,99)","size":1.0},{"source":"130","target":"49","id":"560","attributes":{},"color":"rgb(179,144,142)","size":1.0},{"source":"70","target":"41","id":"201","attributes":{},"color":"rgb(203,227,192)","size":1.0},{"source":"120","target":"41","id":"499","attributes":{},"color":"rgb(225,164,198)","size":1.0},{"source":"139","target":"118","id":"707","attributes":{},"color":"rgb(220,134,184)","size":1.0},{"source":"175","target":"130","id":"921","attributes":{},"color":"rgb(176,130,135)","size":1.0},{"source":"120","target":"84","id":"502","attributes":{},"color":"rgb(231,162,205)","size":1.0},{"source":"30","target":"11","id":"51","attributes":{},"color":"rgb(215,72,160)","size":1.0},{"source":"183","target":"70","id":"957","attributes":{},"color":"rgb(191,121,148)","size":1.0},{"source":"163","target":"127","id":"821","attributes":{},"color":"rgb(214,64,157)","size":1.0},{"source":"185","target":"84","id":"965","attributes":{},"color":"rgb(230,158,203)","size":1.0},{"source":"105","target":"87","id":"421","attributes":{},"color":"rgb(225,125,187)","size":1.0},{"source":"171","target":"41","id":"870","attributes":{},"color":"rgb(225,167,199)","size":1.0},{"source":"210","target":"80","id":"1199","attributes":{},"color":"rgb(157,126,112)","size":1.0},{"source":"84","target":"181","id":"317","attributes":{},"color":"rgb(227,138,193)","size":1.0},{"source":"229","target":"130","id":"1286","attributes":{},"color":"rgb(175,124,132)","size":1.0},{"source":"75","target":"50","id":"227","attributes":{},"color":"rgb(152,122,105)","size":1.0},{"source":"232","target":"200","id":"1292","attributes":{},"color":"rgb(171,112,123)","size":1.0},{"source":"184","target":"18","id":"961","attributes":{},"color":"rgb(200,125,159)","size":1.0},{"source":"93","target":"50","id":"356","attributes":{},"color":"rgb(151,120,104)","size":1.0},{"source":"149","target":"50","id":"724","attributes":{},"color":"rgb(149,109,99)","size":1.0},{"source":"163","target":"106","id":"819","attributes":{},"color":"rgb(217,81,165)","size":1.0},{"source":"180","target":"169","id":"947","attributes":{},"color":"rgb(211,51,150)","size":1.0},{"source":"130","target":"105","id":"581","attributes":{},"color":"rgb(180,154,147)","size":1.0},{"source":"200","target":"192","id":"1138","attributes":{},"color":"rgb(190,220,176)","size":1.0},{"source":"204","target":"186","id":"1167","attributes":{},"color":"rgb(214,66,157)","size":1.0},{"source":"144","target":"18","id":"716","attributes":{},"color":"rgb(200,125,159)","size":1.0},{"source":"171","target":"80","id":"875","attributes":{},"color":"rgb(159,138,119)","size":1.0},{"source":"217","target":"50","id":"1236","attributes":{},"color":"rgb(152,122,106)","size":1.0},{"source":"193","target":"136","id":"1053","attributes":{},"color":"rgb(144,113,95)","size":1.0},{"source":"136","target":"20","id":"630","attributes":{},"color":"rgb(146,123,99)","size":1.0},{"source":"119","target":"41","id":"490","attributes":{},"color":"rgb(222,151,191)","size":1.0},{"source":"24","target":"44","id":"43","attributes":{},"color":"rgb(222,107,177)","size":1.0},{"source":"86","target":"84","id":"327","attributes":{},"color":"rgb(227,139,194)","size":1.0},{"source":"136","target":"70","id":"661","attributes":{},"color":"rgb(126,193,98)","size":1.0},{"source":"143","target":"18","id":"715","attributes":{},"color":"rgb(200,125,159)","size":1.0},{"source":"111","target":"97","id":"459","attributes":{},"color":"rgb(217,82,165)","size":1.0},{"source":"204","target":"136","id":"1166","attributes":{},"color":"rgb(148,133,104)","size":1.0},{"source":"120","target":"2","id":"496","attributes":{},"color":"rgb(214,66,157)","size":1.0},{"source":"179","target":"35","id":"940","attributes":{},"color":"rgb(216,76,162)","size":1.0},{"source":"80","target":"70","id":"274","attributes":{},"color":"rgb(137,198,112)","size":1.0},{"source":"37","target":"157","id":"68","attributes":{},"color":"rgb(219,91,170)","size":1.0},{"source":"165","target":"154","id":"844","attributes":{},"color":"rgb(227,138,193)","size":1.0},{"source":"189","target":"134","id":"993","attributes":{},"color":"rgb(219,97,173)","size":1.0},{"source":"192","target":"82","id":"1024","attributes":{},"color":"rgb(231,159,203)","size":1.0},{"source":"154","target":"98","id":"773","attributes":{},"color":"rgb(231,157,202)","size":1.0},{"source":"80","target":"229","id":"285","attributes":{},"color":"rgb(155,115,107)","size":1.0},{"source":"14","target":"120","id":"28","attributes":{},"color":"rgb(214,64,156)","size":1.0},{"source":"71","target":"134","id":"216","attributes":{},"color":"rgb(214,64,157)","size":1.0},{"source":"136","target":"34","id":"638","attributes":{},"color":"rgb(144,109,93)","size":1.0},{"source":"162","target":"80","id":"811","attributes":{},"color":"rgb(154,105,102)","size":1.0},{"source":"48","target":"41","id":"113","attributes":{},"color":"rgb(223,157,194)","size":1.0},{"source":"154","target":"9","id":"748","attributes":{},"color":"rgb(231,162,205)","size":1.0},{"source":"88","target":"59","id":"346","attributes":{},"color":"rgb(215,72,161)","size":1.0},{"source":"234","target":"50","id":"1295","attributes":{},"color":"rgb(148,102,96)","size":1.0},{"source":"61","target":"70","id":"173","attributes":{},"color":"rgb(195,146,160)","size":1.0},{"source":"152","target":"136","id":"741","attributes":{},"color":"rgb(149,137,107)","size":1.0},{"source":"198","target":"80","id":"1089","attributes":{},"color":"rgb(154,107,103)","size":1.0},{"source":"87","target":"70","id":"336","attributes":{},"color":"rgb(201,178,176)","size":1.0},{"source":"119","target":"211","id":"495","attributes":{},"color":"rgb(212,52,150)","size":1.0},{"source":"173","target":"48","id":"899","attributes":{},"color":"rgb(214,153,183)","size":1.0},{"source":"157","target":"50","id":"793","attributes":{},"color":"rgb(151,117,103)","size":1.0},{"source":"192","target":"176","id":"1042","attributes":{},"color":"rgb(232,169,208)","size":1.0},{"source":"72","target":"80","id":"219","attributes":{},"color":"rgb(157,122,111)","size":1.0},{"source":"136","target":"59","id":"654","attributes":{},"color":"rgb(148,135,106)","size":1.0},{"source":"134","target":"84","id":"612","attributes":{},"color":"rgb(231,162,205)","size":1.0},{"source":"45","target":"123","id":"107","attributes":{},"color":"rgb(215,74,161)","size":1.0},{"source":"182","target":"128","id":"954","attributes":{},"color":"rgb(214,69,159)","size":1.0},{"source":"85","target":"172","id":"320","attributes":{},"color":"rgb(217,84,166)","size":1.0},{"source":"7","target":"173","id":"8","attributes":{},"color":"rgb(210,130,172)","size":1.0},{"source":"41","target":"10","id":"78","attributes":{},"color":"rgb(225,165,198)","size":1.0},{"source":"178","target":"80","id":"938","attributes":{},"color":"rgb(154,105,102)","size":1.0},{"source":"152","target":"95","id":"738","attributes":{},"color":"rgb(215,69,159)","size":1.0},{"source":"169","target":"80","id":"862","attributes":{},"color":"rgb(156,121,110)","size":1.0},{"source":"175","target":"2","id":"918","attributes":{},"color":"rgb(211,52,150)","size":1.0},{"source":"176","target":"80","id":"926","attributes":{},"color":"rgb(159,138,118)","size":1.0},{"source":"192","target":"68","id":"1020","attributes":{},"color":"rgb(232,167,207)","size":1.0},{"source":"80","target":"34","id":"259","attributes":{},"color":"rgb(155,114,107)","size":1.0},{"source":"171","target":"70","id":"874","attributes":{},"color":"rgb(197,155,165)","size":1.0},{"source":"152","target":"130","id":"740","attributes":{},"color":"rgb(180,151,145)","size":1.0},{"source":"37","target":"197","id":"70","attributes":{},"color":"rgb(216,79,164)","size":1.0},{"source":"165","target":"80","id":"841","attributes":{},"color":"rgb(154,108,104)","size":1.0},{"source":"169","target":"154","id":"865","attributes":{},"color":"rgb(229,151,199)","size":1.0},{"source":"50","target":"31","id":"137","attributes":{},"color":"rgb(151,118,104)","size":1.0},{"source":"130","target":"127","id":"592","attributes":{},"color":"rgb(177,134,137)","size":1.0},{"source":"165","target":"84","id":"842","attributes":{},"color":"rgb(226,134,191)","size":1.0},{"source":"198","target":"50","id":"1088","attributes":{},"color":"rgb(148,105,97)","size":1.0},{"source":"11","target":"106","id":"24","attributes":{},"color":"rgb(219,92,170)","size":1.0},{"source":"41","target":"2","id":"75","attributes":{},"color":"rgb(220,141,186)","size":1.0},{"source":"193","target":"130","id":"1052","attributes":{},"color":"rgb(175,127,133)","size":1.0},{"source":"105","target":"104","id":"423","attributes":{},"color":"rgb(219,94,171)","size":1.0},{"source":"127","target":"70","id":"523","attributes":{},"color":"rgb(195,142,158)","size":1.0},{"source":"213","target":"130","id":"1225","attributes":{},"color":"rgb(177,137,139)","size":1.0},{"source":"86","target":"9","id":"321","attributes":{},"color":"rgb(214,63,156)","size":1.0},{"source":"92","target":"130","id":"355","attributes":{},"color":"rgb(174,116,128)","size":1.0},{"source":"70","target":"9","id":"196","attributes":{},"color":"rgb(196,149,162)","size":1.0},{"source":"115","target":"54","id":"471","attributes":{},"color":"rgb(214,62,156)","size":1.0},{"source":"130","target":"35","id":"553","attributes":{},"color":"rgb(180,150,145)","size":1.0},{"source":"70","target":"4","id":"195","attributes":{},"color":"rgb(192,125,150)","size":1.0},{"source":"130","target":"122","id":"591","attributes":{},"color":"rgb(176,129,134)","size":1.0},{"source":"41","target":"131","id":"89","attributes":{},"color":"rgb(220,140,186)","size":1.0},{"source":"189","target":"20","id":"979","attributes":{},"color":"rgb(218,89,169)","size":1.0},{"source":"213","target":"50","id":"1219","attributes":{},"color":"rgb(152,126,108)","size":1.0},{"source":"176","target":"130","id":"929","attributes":{},"color":"rgb(179,146,143)","size":1.0},{"source":"130","target":"115","id":"587","attributes":{},"color":"rgb(179,147,144)","size":1.0},{"source":"186","target":"50","id":"973","attributes":{},"color":"rgb(149,108,98)","size":1.0},{"source":"195","target":"109","id":"1074","attributes":{},"color":"rgb(217,85,167)","size":1.0},{"source":"196","target":"118","id":"1082","attributes":{},"color":"rgb(220,134,184)","size":1.0},{"source":"41","target":"11","id":"79","attributes":{},"color":"rgb(224,161,196)","size":1.0},{"source":"9","target":"152","id":"14","attributes":{},"color":"rgb(219,93,171)","size":1.0},{"source":"121","target":"70","id":"506","attributes":{},"color":"rgb(191,121,148)","size":1.0},{"source":"154","target":"123","id":"781","attributes":{},"color":"rgb(228,143,195)","size":1.0},{"source":"222","target":"200","id":"1258","attributes":{},"color":"rgb(171,112,123)","size":1.0},{"source":"163","target":"195","id":"828","attributes":{},"color":"rgb(214,68,159)","size":1.0},{"source":"174","target":"24","id":"917","attributes":{},"color":"rgb(215,67,158)","size":1.0},{"source":"120","target":"50","id":"500","attributes":{},"color":"rgb(154,133,111)","size":1.0},{"source":"203","target":"154","id":"1155","attributes":{},"color":"rgb(230,154,201)","size":1.0},{"source":"49","target":"138","id":"116","attributes":{},"color":"rgb(214,63,156)","size":1.0},{"source":"164","target":"53","id":"831","attributes":{},"color":"rgb(216,75,162)","size":1.0},{"source":"118","target":"50","id":"481","attributes":{},"color":"rgb(161,209,141)","size":1.0},{"source":"191","target":"50","id":"1004","attributes":{},"color":"rgb(151,119,104)","size":1.0},{"source":"92","target":"80","id":"353","attributes":{},"color":"rgb(154,108,103)","size":1.0},{"source":"175","target":"136","id":"922","attributes":{},"color":"rgb(145,116,96)","size":1.0},{"source":"152","target":"82","id":"735","attributes":{},"color":"rgb(218,89,169)","size":1.0},{"source":"50","target":"28","id":"135","attributes":{},"color":"rgb(149,106,97)","size":1.0},{"source":"192","target":"136","id":"1032","attributes":{},"color":"rgb(161,208,141)","size":1.0},{"source":"130","target":"48","id":"559","attributes":{},"color":"rgb(177,137,138)","size":1.0},{"source":"136","target":"74","id":"664","attributes":{},"color":"rgb(143,106,91)","size":1.0},{"source":"136","target":"98","id":"677","attributes":{},"color":"rgb(146,122,99)","size":1.0},{"source":"109","target":"49","id":"441","attributes":{},"color":"rgb(219,91,170)","size":1.0},{"source":"207","target":"28","id":"1186","attributes":{},"color":"rgb(211,47,148)","size":1.0},{"source":"103","target":"70","id":"406","attributes":{},"color":"rgb(193,133,154)","size":1.0},{"source":"159","target":"70","id":"800","attributes":{},"color":"rgb(194,140,157)","size":1.0},{"source":"200","target":"127","id":"1120","attributes":{},"color":"rgb(174,133,133)","size":1.0},{"source":"207","target":"50","id":"1188","attributes":{},"color":"rgb(151,118,104)","size":1.0},{"source":"101","target":"80","id":"393","attributes":{},"color":"rgb(154,110,105)","size":1.0},{"source":"200","target":"146","id":"1125","attributes":{},"color":"rgb(172,118,126)","size":1.0},{"source":"225","target":"136","id":"1272","attributes":{},"color":"rgb(142,100,88)","size":1.0},{"source":"130","target":"113","id":"586","attributes":{},"color":"rgb(173,113,127)","size":1.0},{"source":"98","target":"50","id":"385","attributes":{},"color":"rgb(152,125,107)","size":1.0},{"source":"206","target":"200","id":"1185","attributes":{},"color":"rgb(172,119,126)","size":1.0},{"source":"50","target":"37","id":"143","attributes":{},"color":"rgb(157,151,120)","size":1.0},{"source":"168","target":"87","id":"851","attributes":{},"color":"rgb(222,109,178)","size":1.0},{"source":"204","target":"80","id":"1164","attributes":{},"color":"rgb(159,138,118)","size":1.0},{"source":"189","target":"41","id":"982","attributes":{},"color":"rgb(226,172,202)","size":1.0},{"source":"87","target":"9","id":"328","attributes":{},"color":"rgb(222,112,180)","size":1.0},{"source":"102","target":"70","id":"398","attributes":{},"color":"rgb(194,139,157)","size":1.0},{"source":"127","target":"50","id":"522","attributes":{},"color":"rgb(152,123,106)","size":1.0},{"source":"192","target":"181","id":"1043","attributes":{},"color":"rgb(228,142,195)","size":1.0},{"source":"10","target":"105","id":"19","attributes":{},"color":"rgb(220,100,174)","size":1.0},{"source":"50","target":"12","id":"129","attributes":{},"color":"rgb(149,106,97)","size":1.0},{"source":"123","target":"87","id":"514","attributes":{},"color":"rgb(219,93,171)","size":1.0},{"source":"38","target":"6","id":"72","attributes":{},"color":"rgb(208,32,141)","size":1.0},{"source":"155","target":"80","id":"790","attributes":{},"color":"rgb(154,105,102)","size":1.0},{"source":"75","target":"181","id":"231","attributes":{},"color":"rgb(212,54,151)","size":1.0},{"source":"123","target":"84","id":"513","attributes":{},"color":"rgb(227,139,194)","size":1.0},{"source":"130","target":"111","id":"585","attributes":{},"color":"rgb(180,151,145)","size":1.0},{"source":"47","target":"18","id":"110","attributes":{},"color":"rgb(200,125,159)","size":1.0},{"source":"171","target":"50","id":"873","attributes":{},"color":"rgb(154,136,112)","size":1.0},{"source":"105","target":"80","id":"419","attributes":{},"color":"rgb(161,145,122)","size":1.0},{"source":"48","target":"35","id":"112","attributes":{},"color":"rgb(218,88,168)","size":1.0},{"source":"190","target":"70","id":"998","attributes":{},"color":"rgb(192,125,150)","size":1.0},{"source":"86","target":"41","id":"322","attributes":{},"color":"rgb(221,142,187)","size":1.0},{"source":"115","target":"127","id":"474","attributes":{},"color":"rgb(217,82,166)","size":1.0},{"source":"188","target":"173","id":"977","attributes":{},"color":"rgb(210,130,172)","size":1.0},{"source":"192","target":"50","id":"1016","attributes":{},"color":"rgb(167,210,149)","size":1.0},{"source":"45","target":"25","id":"103","attributes":{},"color":"rgb(216,78,163)","size":1.0},{"source":"84","target":"45","id":"304","attributes":{},"color":"rgb(232,169,208)","size":1.0},{"source":"53","target":"189","id":"157","attributes":{},"color":"rgb(217,83,166)","size":1.0},{"source":"75","target":"77","id":"228","attributes":{},"color":"rgb(214,64,157)","size":1.0},{"source":"136","target":"111","id":"686","attributes":{},"color":"rgb(149,137,107)","size":1.0},{"source":"127","target":"87","id":"526","attributes":{},"color":"rgb(221,105,177)","size":1.0},{"source":"80","target":"35","id":"260","attributes":{},"color":"rgb(160,142,120)","size":1.0},{"source":"163","target":"192","id":"827","attributes":{},"color":"rgb(229,152,200)","size":1.0},{"source":"136","target":"127","id":"694","attributes":{},"color":"rgb(146,120,98)","size":1.0},{"source":"163","target":"130","id":"822","attributes":{},"color":"rgb(176,129,135)","size":1.0},{"source":"182","target":"70","id":"953","attributes":{},"color":"rgb(193,132,153)","size":1.0},{"source":"84","target":"35","id":"302","attributes":{},"color":"rgb(232,168,208)","size":1.0},{"source":"173","target":"69","id":"902","attributes":{},"color":"rgb(216,164,189)","size":1.0},{"source":"146","target":"176","id":"721","attributes":{},"color":"rgb(214,67,158)","size":1.0},{"source":"192","target":"162","id":"1038","attributes":{},"color":"rgb(227,136,192)","size":1.0},{"source":"173","target":"158","id":"913","attributes":{},"color":"rgb(210,130,172)","size":1.0},{"source":"79","target":"44","id":"240","attributes":{},"color":"rgb(218,89,169)","size":1.0},{"source":"135","target":"80","id":"619","attributes":{},"color":"rgb(156,118,109)","size":1.0},{"source":"211","target":"106","id":"1209","attributes":{},"color":"rgb(215,72,160)","size":1.0},{"source":"80","target":"14","id":"251","attributes":{},"color":"rgb(155,110,105)","size":1.0},{"source":"192","target":"127","id":"1030","attributes":{},"color":"rgb(230,156,202)","size":1.0},{"source":"194","target":"109","id":"1059","attributes":{},"color":"rgb(216,76,162)","size":1.0},{"source":"87","target":"84","id":"338","attributes":{},"color":"rgb(236,188,218)","size":1.0},{"source":"200","target":"187","id":"1135","attributes":{},"color":"rgb(171,112,123)","size":1.0},{"source":"105","target":"45","id":"415","attributes":{},"color":"rgb(221,106,177)","size":1.0},{"source":"173","target":"162","id":"915","attributes":{},"color":"rgb(210,130,172)","size":1.0},{"source":"189","target":"49","id":"984","attributes":{},"color":"rgb(220,97,173)","size":1.0},{"source":"209","target":"200","id":"1197","attributes":{},"color":"rgb(171,112,123)","size":1.0},{"source":"84","target":"2","id":"295","attributes":{},"color":"rgb(227,139,193)","size":1.0},{"source":"70","target":"37","id":"200","attributes":{},"color":"rgb(200,170,172)","size":1.0},{"source":"87","target":"48","id":"333","attributes":{},"color":"rgb(222,108,178)","size":1.0},{"source":"22","target":"77","id":"39","attributes":{},"color":"rgb(216,78,163)","size":1.0},{"source":"136","target":"69","id":"660","attributes":{},"color":"rgb(148,134,105)","size":1.0},{"source":"28","target":"120","id":"50","attributes":{},"color":"rgb(214,62,155)","size":1.0},{"source":"130","target":"78","id":"570","attributes":{},"color":"rgb(173,116,128)","size":1.0},{"source":"9","target":"105","id":"11","attributes":{},"color":"rgb(219,96,172)","size":1.0},{"source":"193","target":"154","id":"1054","attributes":{},"color":"rgb(229,148,198)","size":1.0},{"source":"216","target":"173","id":"1232","attributes":{},"color":"rgb(210,130,172)","size":1.0},{"source":"223","target":"70","id":"1263","attributes":{},"color":"rgb(195,141,158)","size":1.0},{"source":"89","target":"18","id":"349","attributes":{},"color":"rgb(200,125,159)","size":1.0},{"source":"136","target":"83","id":"669","attributes":{},"color":"rgb(143,107,92)","size":1.0},{"source":"130","target":"119","id":"589","attributes":{},"color":"rgb(176,131,135)","size":1.0},{"source":"35","target":"37","id":"58","attributes":{},"color":"rgb(223,113,181)","size":1.0},{"source":"200","target":"135","id":"1122","attributes":{},"color":"rgb(173,125,130)","size":1.0},{"source":"173","target":"60","id":"900","attributes":{},"color":"rgb(210,130,172)","size":1.0},{"source":"128","target":"168","id":"539","attributes":{},"color":"rgb(217,82,165)","size":1.0},{"source":"171","target":"49","id":"872","attributes":{},"color":"rgb(219,92,170)","size":1.0},{"source":"110","target":"80","id":"452","attributes":{},"color":"rgb(156,120,110)","size":1.0},{"source":"53","target":"37","id":"151","attributes":{},"color":"rgb(219,93,171)","size":1.0},{"source":"136","target":"118","id":"689","attributes":{},"color":"rgb(155,206,134)","size":1.0},{"source":"194","target":"189","id":"1065","attributes":{},"color":"rgb(217,82,165)","size":1.0},{"source":"106","target":"70","id":"430","attributes":{},"color":"rgb(198,159,167)","size":1.0},{"source":"168","target":"37","id":"845","attributes":{},"color":"rgb(220,100,174)","size":1.0},{"source":"95","target":"50","id":"365","attributes":{},"color":"rgb(149,106,98)","size":1.0},{"source":"48","target":"205","id":"114","attributes":{},"color":"rgb(215,69,159)","size":1.0},{"source":"136","target":"93","id":"675","attributes":{},"color":"rgb(145,117,97)","size":1.0},{"source":"179","target":"130","id":"942","attributes":{},"color":"rgb(175,124,132)","size":1.0},{"source":"80","target":"20","id":"254","attributes":{},"color":"rgb(158,128,113)","size":1.0},{"source":"159","target":"87","id":"802","attributes":{},"color":"rgb(221,103,176)","size":1.0},{"source":"154","target":"106","id":"776","attributes":{},"color":"rgb(233,172,210)","size":1.0},{"source":"101","target":"41","id":"392","attributes":{},"color":"rgb(220,139,185)","size":1.0},{"source":"111","target":"168","id":"461","attributes":{},"color":"rgb(218,89,169)","size":1.0},{"source":"82","target":"105","id":"289","attributes":{},"color":"rgb(219,92,170)","size":1.0},{"source":"11","target":"78","id":"23","attributes":{},"color":"rgb(212,57,153)","size":1.0},{"source":"80","target":"50","id":"268","attributes":{},"color":"rgb(94,179,59)","size":1.0},{"source":"88","target":"61","id":"347","attributes":{},"color":"rgb(213,62,155)","size":1.0},{"source":"200","target":"69","id":"1110","attributes":{},"color":"rgb(177,147,140)","size":1.0},{"source":"96","target":"11","id":"367","attributes":{},"color":"rgb(216,77,163)","size":1.0},{"source":"161","target":"39","id":"808","attributes":{},"color":"rgb(208,28,139)","size":1.0},{"source":"192","target":"189","id":"1045","attributes":{},"color":"rgb(233,174,211)","size":1.0},{"source":"173","target":"108","id":"907","attributes":{},"color":"rgb(210,130,172)","size":1.0},{"source":"173","target":"82","id":"905","attributes":{},"color":"rgb(214,153,183)","size":1.0},{"source":"177","target":"173","id":"937","attributes":{},"color":"rgb(210,130,172)","size":1.0},{"source":"185","target":"41","id":"962","attributes":{},"color":"rgb(224,161,196)","size":1.0},{"source":"132","target":"48","id":"599","attributes":{},"color":"rgb(216,79,164)","size":1.0},{"source":"172","target":"176","id":"893","attributes":{},"color":"rgb(223,115,181)","size":1.0},{"source":"212","target":"130","id":"1215","attributes":{},"color":"rgb(174,118,129)","size":1.0},{"source":"45","target":"132","id":"108","attributes":{},"color":"rgb(219,93,171)","size":1.0},{"source":"211","target":"154","id":"1211","attributes":{},"color":"rgb(228,141,194)","size":1.0},{"source":"18","target":"130","id":"31","attributes":{},"color":"rgb(166,211,147)","size":1.0},{"source":"82","target":"59","id":"288","attributes":{},"color":"rgb(218,87,168)","size":1.0},{"source":"130","target":"84","id":"575","attributes":{},"color":"rgb(191,217,178)","size":1.0},{"source":"225","target":"170","id":"1273","attributes":{},"color":"rgb(208,28,139)","size":1.0},{"source":"82","target":"205","id":"291","attributes":{},"color":"rgb(215,69,159)","size":1.0},{"source":"191","target":"134","id":"1007","attributes":{},"color":"rgb(216,75,162)","size":1.0},{"source":"193","target":"53","id":"1049","attributes":{},"color":"rgb(213,58,153)","size":1.0},{"source":"205","target":"136","id":"1176","attributes":{},"color":"rgb(145,118,97)","size":1.0},{"source":"218","target":"59","id":"1240","attributes":{},"color":"rgb(215,69,159)","size":1.0},{"source":"188","target":"118","id":"976","attributes":{},"color":"rgb(220,134,184)","size":1.0},{"source":"136","target":"31","id":"636","attributes":{},"color":"rgb(145,116,96)","size":1.0},{"source":"223","target":"74","id":"1264","attributes":{},"color":"rgb(212,54,151)","size":1.0},{"source":"44","target":"21","id":"98","attributes":{},"color":"rgb(216,76,162)","size":1.0},{"source":"170","target":"136","id":"867","attributes":{},"color":"rgb(142,100,88)","size":1.0},{"source":"213","target":"91","id":"1224","attributes":{},"color":"rgb(212,54,152)","size":1.0},{"source":"12","target":"204","id":"26","attributes":{},"color":"rgb(214,64,156)","size":1.0},{"source":"98","target":"12","id":"383","attributes":{},"color":"rgb(212,54,151)","size":1.0},{"source":"59","target":"180","id":"169","attributes":{},"color":"rgb(215,70,160)","size":1.0},{"source":"70","target":"172","id":"213","attributes":{},"color":"rgb(201,175,175)","size":1.0},{"source":"136","target":"4","id":"623","attributes":{},"color":"rgb(143,103,90)","size":1.0},{"source":"200","target":"136","id":"1123","attributes":{},"color":"rgb(105,184,73)","size":1.0},{"source":"105","target":"115","id":"424","attributes":{},"color":"rgb(221,102,176)","size":1.0},{"source":"50","target":"0","id":"120","attributes":{},"color":"rgb(153,127,108)","size":1.0},{"source":"136","target":"210","id":"701","attributes":{},"color":"rgb(146,121,98)","size":1.0},{"source":"104","target":"82","id":"410","attributes":{},"color":"rgb(216,77,163)","size":1.0},{"source":"127","target":"84","id":"525","attributes":{},"color":"rgb(229,152,200)","size":1.0},{"source":"133","target":"46","id":"607","attributes":{},"color":"rgb(211,48,149)","size":1.0},{"source":"180","target":"80","id":"945","attributes":{},"color":"rgb(155,112,106)","size":1.0},{"source":"217","target":"145","id":"1238","attributes":{},"color":"rgb(213,61,155)","size":1.0},{"source":"136","target":"53","id":"652","attributes":{},"color":"rgb(145,116,96)","size":1.0},{"source":"102","target":"172","id":"402","attributes":{},"color":"rgb(220,99,174)","size":1.0},{"source":"205","target":"87","id":"1174","attributes":{},"color":"rgb(221,103,176)","size":1.0},{"source":"115","target":"200","id":"475","attributes":{},"color":"rgb(177,146,140)","size":1.0},{"source":"130","target":"59","id":"563","attributes":{},"color":"rgb(179,149,144)","size":1.0},{"source":"42","target":"18","id":"95","attributes":{},"color":"rgb(200,125,159)","size":1.0},{"source":"128","target":"14","id":"531","attributes":{},"color":"rgb(214,64,156)","size":1.0},{"source":"132","target":"91","id":"604","attributes":{},"color":"rgb(212,58,153)","size":1.0},{"source":"96","target":"70","id":"370","attributes":{},"color":"rgb(195,144,159)","size":1.0},{"source":"163","target":"45","id":"813","attributes":{},"color":"rgb(217,82,165)","size":1.0},{"source":"226","target":"50","id":"1274","attributes":{},"color":"rgb(149,106,97)","size":1.0},{"source":"80","target":"78","id":"277","attributes":{},"color":"rgb(154,107,103)","size":1.0},{"source":"226","target":"136","id":"1276","attributes":{},"color":"rgb(143,103,90)","size":1.0},{"source":"223","target":"4","id":"1259","attributes":{},"color":"rgb(212,51,150)","size":1.0},{"source":"20","target":"154","id":"34","attributes":{},"color":"rgb(231,158,202)","size":1.0},{"source":"169","target":"41","id":"858","attributes":{},"color":"rgb(222,150,191)","size":1.0},{"source":"119","target":"80","id":"493","attributes":{},"color":"rgb(157,122,111)","size":1.0},{"source":"105","target":"50","id":"416","attributes":{},"color":"rgb(155,143,116)","size":1.0},{"source":"183","target":"80","id":"958","attributes":{},"color":"rgb(154,105,102)","size":1.0},{"source":"96","target":"106","id":"374","attributes":{},"color":"rgb(218,88,168)","size":1.0},{"source":"223","target":"50","id":"1262","attributes":{},"color":"rgb(152,122,105)","size":1.0},{"source":"134","target":"36","id":"609","attributes":{},"color":"rgb(217,83,166)","size":1.0},{"source":"84","target":"19","id":"298","attributes":{},"color":"rgb(229,149,198)","size":1.0},{"source":"154","target":"11","id":"749","attributes":{},"color":"rgb(231,162,204)","size":1.0},{"source":"128","target":"49","id":"535","attributes":{},"color":"rgb(218,89,169)","size":1.0},{"source":"130","target":"46","id":"558","attributes":{},"color":"rgb(173,113,127)","size":1.0},{"source":"197","target":"41","id":"1083","attributes":{},"color":"rgb(219,136,184)","size":1.0},{"source":"185","target":"212","id":"971","attributes":{},"color":"rgb(213,59,154)","size":1.0},{"source":"145","target":"130","id":"719","attributes":{},"color":"rgb(175,126,133)","size":1.0},{"source":"50","target":"19","id":"130","attributes":{},"color":"rgb(151,120,104)","size":1.0},{"source":"154","target":"80","id":"768","attributes":{},"color":"rgb(173,212,155)","size":1.0},{"source":"192","target":"59","id":"1017","attributes":{},"color":"rgb(233,171,209)","size":1.0},{"source":"41","target":"223","id":"93","attributes":{},"color":"rgb(223,153,192)","size":1.0},{"source":"168","target":"130","id":"855","attributes":{},"color":"rgb(177,137,138)","size":1.0},{"source":"172","target":"86","id":"886","attributes":{},"color":"rgb(219,90,169)","size":1.0},{"source":"163","target":"136","id":"825","attributes":{},"color":"rgb(145,116,96)","size":1.0},{"source":"97","target":"50","id":"377","attributes":{},"color":"rgb(151,119,104)","size":1.0},{"source":"135","target":"97","id":"620","attributes":{},"color":"rgb(213,58,153)","size":1.0},{"source":"218","target":"80","id":"1242","attributes":{},"color":"rgb(155,111,105)","size":1.0},{"source":"172","target":"154","id":"892","attributes":{},"color":"rgb(236,189,218)","size":1.0},{"source":"192","target":"83","id":"1025","attributes":{},"color":"rgb(228,143,195)","size":1.0},{"source":"193","target":"80","id":"1051","attributes":{},"color":"rgb(156,118,109)","size":1.0},{"source":"130","target":"37","id":"554","attributes":{},"color":"rgb(182,162,151)","size":1.0},{"source":"163","target":"131","id":"823","attributes":{},"color":"rgb(211,50,150)","size":1.0},{"source":"72","target":"93","id":"220","attributes":{},"color":"rgb(214,62,156)","size":1.0},{"source":"84","target":"128","id":"313","attributes":{},"color":"rgb(231,162,205)","size":1.0},{"source":"58","target":"50","id":"164","attributes":{},"color":"rgb(148,102,96)","size":1.0},{"source":"102","target":"80","id":"399","attributes":{},"color":"rgb(157,122,111)","size":1.0},{"source":"194","target":"115","id":"1060","attributes":{},"color":"rgb(216,77,163)","size":1.0},{"source":"84","target":"9","id":"296","attributes":{},"color":"rgb(230,159,203)","size":1.0},{"source":"86","target":"75","id":"325","attributes":{},"color":"rgb(213,55,152)","size":1.0},{"source":"201","target":"113","id":"1142","attributes":{},"color":"rgb(208,28,139)","size":1.0},{"source":"219","target":"136","id":"1251","attributes":{},"color":"rgb(146,122,99)","size":1.0},{"source":"102","target":"127","id":"401","attributes":{},"color":"rgb(214,66,157)","size":1.0},{"source":"210","target":"84","id":"1200","attributes":{},"color":"rgb(229,152,200)","size":1.0},{"source":"136","target":"132","id":"697","attributes":{},"color":"rgb(147,127,102)","size":1.0},{"source":"176","target":"106","id":"928","attributes":{},"color":"rgb(220,98,173)","size":1.0},{"source":"84","target":"80","id":"312","attributes":{},"color":"rgb(172,208,153)","size":1.0},{"source":"183","target":"173","id":"960","attributes":{},"color":"rgb(210,130,172)","size":1.0},{"source":"213","target":"20","id":"1217","attributes":{},"color":"rgb(216,75,162)","size":1.0},{"source":"172","target":"120","id":"889","attributes":{},"color":"rgb(223,112,180)","size":1.0},{"source":"206","target":"192","id":"1184","attributes":{},"color":"rgb(228,142,195)","size":1.0},{"source":"171","target":"86","id":"876","attributes":{},"color":"rgb(215,69,159)","size":1.0},{"source":"195","target":"84","id":"1072","attributes":{},"color":"rgb(230,155,202)","size":1.0},{"source":"59","target":"21","id":"166","attributes":{},"color":"rgb(215,71,160)","size":1.0},{"source":"159","target":"136","id":"804","attributes":{},"color":"rgb(145,118,97)","size":1.0},{"source":"212","target":"80","id":"1213","attributes":{},"color":"rgb(154,109,104)","size":1.0},{"source":"87","target":"212","id":"342","attributes":{},"color":"rgb(218,89,169)","size":1.0},{"source":"61","target":"41","id":"171","attributes":{},"color":"rgb(223,159,195)","size":1.0},{"source":"98","target":"72","id":"386","attributes":{},"color":"rgb(215,67,158)","size":1.0},{"source":"80","target":"56","id":"271","attributes":{},"color":"rgb(154,105,102)","size":1.0},{"source":"152","target":"50","id":"732","attributes":{},"color":"rgb(155,140,114)","size":1.0},{"source":"132","target":"130","id":"606","attributes":{},"color":"rgb(178,141,140)","size":1.0},{"source":"135","target":"10","id":"617","attributes":{},"color":"rgb(215,72,161)","size":1.0},{"source":"228","target":"219","id":"1281","attributes":{},"color":"rgb(211,50,149)","size":1.0},{"source":"119","target":"95","id":"494","attributes":{},"color":"rgb(211,49,149)","size":1.0},{"source":"169","target":"50","id":"860","attributes":{},"color":"rgb(151,118,104)","size":1.0},{"source":"201","target":"130","id":"1143","attributes":{},"color":"rgb(173,113,127)","size":1.0},{"source":"189","target":"84","id":"988","attributes":{},"color":"rgb(232,170,209)","size":1.0},{"source":"53","target":"172","id":"156","attributes":{},"color":"rgb(220,98,173)","size":1.0},{"source":"80","target":"4","id":"245","attributes":{},"color":"rgb(154,108,104)","size":1.0},{"source":"213","target":"80","id":"1221","attributes":{},"color":"rgb(158,129,114)","size":1.0},{"source":"207","target":"70","id":"1189","attributes":{},"color":"rgb(194,137,156)","size":1.0},{"source":"92","target":"87","id":"354","attributes":{},"color":"rgb(218,88,168)","size":1.0},{"source":"41","target":"49","id":"87","attributes":{},"color":"rgb(225,164,198)","size":1.0},{"source":"189","target":"70","id":"986","attributes":{},"color":"rgb(198,160,167)","size":1.0},{"source":"136","target":"133","id":"698","attributes":{},"color":"rgb(146,120,98)","size":1.0},{"source":"59","target":"19","id":"165","attributes":{},"color":"rgb(217,81,165)","size":1.0},{"source":"136","target":"45","id":"647","attributes":{},"color":"rgb(149,138,107)","size":1.0},{"source":"215","target":"20","id":"1229","attributes":{},"color":"rgb(213,58,153)","size":1.0},{"source":"130","target":"0","id":"542","attributes":{},"color":"rgb(178,138,139)","size":1.0},{"source":"171","target":"154","id":"879","attributes":{},"color":"rgb(232,168,208)","size":1.0},{"source":"80","target":"43","id":"263","attributes":{},"color":"rgb(154,108,104)","size":1.0},{"source":"118","target":"80","id":"484","attributes":{},"color":"rgb(166,211,148)","size":1.0},{"source":"61","target":"30","id":"170","attributes":{},"color":"rgb(215,70,159)","size":1.0},{"source":"176","target":"136","id":"930","attributes":{},"color":"rgb(148,133,104)","size":1.0},{"source":"65","target":"27","id":"178","attributes":{},"color":"rgb(213,59,154)","size":1.0},{"source":"80","target":"8","id":"247","attributes":{},"color":"rgb(155,110,105)","size":1.0},{"source":"41","target":"77","id":"88","attributes":{},"color":"rgb(222,151,191)","size":1.0},{"source":"77","target":"111","id":"236","attributes":{},"color":"rgb(217,82,166)","size":1.0},{"source":"74","target":"50","id":"222","attributes":{},"color":"rgb(149,109,99)","size":1.0},{"source":"74","target":"185","id":"224","attributes":{},"color":"rgb(213,61,155)","size":1.0},{"source":"213","target":"84","id":"1222","attributes":{},"color":"rgb(230,155,202)","size":1.0},{"source":"219","target":"130","id":"1250","attributes":{},"color":"rgb(177,135,137)","size":1.0},{"source":"154","target":"95","id":"771","attributes":{},"color":"rgb(227,139,193)","size":1.0},{"source":"100","target":"70","id":"391","attributes":{},"color":"rgb(191,121,148)","size":1.0},{"source":"79","target":"50","id":"241","attributes":{},"color":"rgb(152,124,106)","size":1.0},{"source":"68","target":"17","id":"182","attributes":{},"color":"rgb(213,59,154)","size":1.0},{"source":"154","target":"134","id":"786","attributes":{},"color":"rgb(232,165,206)","size":1.0},{"source":"173","target":"80","id":"904","attributes":{},"color":"rgb(156,207,135)","size":1.0},{"source":"195","target":"80","id":"1071","attributes":{},"color":"rgb(158,129,114)","size":1.0},{"source":"173","target":"103","id":"906","attributes":{},"color":"rgb(212,142,177)","size":1.0},{"source":"0","target":"109","id":"0","attributes":{},"color":"rgb(218,86,167)","size":1.0},{"source":"223","target":"136","id":"1268","attributes":{},"color":"rgb(146,119,98)","size":1.0},{"source":"136","target":"2","id":"622","attributes":{},"color":"rgb(143,107,92)","size":1.0},{"source":"210","target":"111","id":"1202","attributes":{},"color":"rgb(218,86,167)","size":1.0},{"source":"233","target":"35","id":"1293","attributes":{},"color":"rgb(214,65,157)","size":1.0},{"source":"189","target":"21","id":"980","attributes":{},"color":"rgb(215,74,162)","size":1.0},{"source":"200","target":"15","id":"1097","attributes":{},"color":"rgb(171,112,123)","size":1.0},{"source":"138","target":"130","id":"706","attributes":{},"color":"rgb(174,118,129)","size":1.0},{"source":"154","target":"103","id":"774","attributes":{},"color":"rgb(229,147,197)","size":1.0},{"source":"154","target":"84","id":"769","attributes":{},"color":"rgb(245,238,242)","size":1.0},{"source":"87","target":"194","id":"341","attributes":{},"color":"rgb(220,100,174)","size":1.0},{"source":"168","target":"106","id":"854","attributes":{},"color":"rgb(218,89,169)","size":1.0},{"source":"102","target":"50","id":"397","attributes":{},"color":"rgb(151,120,104)","size":1.0},{"source":"11","target":"191","id":"25","attributes":{},"color":"rgb(215,72,160)","size":1.0},{"source":"80","target":"2","id":"244","attributes":{},"color":"rgb(155,112,106)","size":1.0},{"source":"118","target":"109","id":"487","attributes":{},"color":"rgb(226,167,200)","size":1.0},{"source":"168","target":"70","id":"849","attributes":{},"color":"rgb(195,145,160)","size":1.0},{"source":"134","target":"50","id":"610","attributes":{},"color":"rgb(153,133,111)","size":1.0},{"source":"173","target":"160","id":"914","attributes":{},"color":"rgb(210,130,172)","size":1.0},{"source":"111","target":"41","id":"453","attributes":{},"color":"rgb(226,171,201)","size":1.0},{"source":"141","target":"224","id":"713","attributes":{},"color":"rgb(209,37,143)","size":1.0},{"source":"223","target":"37","id":"1260","attributes":{},"color":"rgb(220,96,172)","size":1.0},{"source":"130","target":"82","id":"574","attributes":{},"color":"rgb(177,137,138)","size":1.0},{"source":"165","target":"106","id":"843","attributes":{},"color":"rgb(215,68,159)","size":1.0},{"source":"168","target":"41","id":"846","attributes":{},"color":"rgb(223,158,194)","size":1.0},{"source":"50","target":"2","id":"122","attributes":{},"color":"rgb(149,110,99)","size":1.0},{"source":"136","target":"63","id":"656","attributes":{},"color":"rgb(144,111,94)","size":1.0},{"source":"106","target":"35","id":"427","attributes":{},"color":"rgb(221,102,175)","size":1.0},{"source":"80","target":"219","id":"284","attributes":{},"color":"rgb(157,127,113)","size":1.0},{"source":"171","target":"136","id":"878","attributes":{},"color":"rgb(148,133,105)","size":1.0},{"source":"154","target":"35","id":"756","attributes":{},"color":"rgb(233,172,209)","size":1.0},{"source":"172","target":"12","id":"881","attributes":{},"color":"rgb(218,85,167)","size":1.0},{"source":"128","target":"70","id":"537","attributes":{},"color":"rgb(196,152,163)","size":1.0},{"source":"168","target":"195","id":"857","attributes":{},"color":"rgb(216,76,162)","size":1.0},{"source":"186","target":"80","id":"974","attributes":{},"color":"rgb(154,110,105)","size":1.0},{"source":"69","target":"41","id":"186","attributes":{},"color":"rgb(225,168,200)","size":1.0},{"source":"152","target":"70","id":"733","attributes":{},"color":"rgb(198,159,167)","size":1.0},{"source":"218","target":"25","id":"1239","attributes":{},"color":"rgb(211,46,147)","size":1.0},{"source":"84","target":"150","id":"314","attributes":{},"color":"rgb(226,135,192)","size":1.0},{"source":"115","target":"44","id":"468","attributes":{},"color":"rgb(221,102,175)","size":1.0},{"source":"202","target":"136","id":"1145","attributes":{},"color":"rgb(143,103,90)","size":1.0},{"source":"134","target":"193","id":"616","attributes":{},"color":"rgb(215,72,160)","size":1.0},{"source":"200","target":"71","id":"1112","attributes":{},"color":"rgb(172,118,126)","size":1.0},{"source":"218","target":"192","id":"1245","attributes":{},"color":"rgb(228,142,194)","size":1.0},{"source":"130","target":"87","id":"577","attributes":{},"color":"rgb(183,170,155)","size":1.0},{"source":"109","target":"24","id":"437","attributes":{},"color":"rgb(220,100,174)","size":1.0},{"source":"182","target":"171","id":"956","attributes":{},"color":"rgb(215,72,160)","size":1.0},{"source":"189","target":"173","id":"996","attributes":{},"color":"rgb(217,168,191)","size":1.0},{"source":"204","target":"88","id":"1165","attributes":{},"color":"rgb(215,70,159)","size":1.0},{"source":"221","target":"31","id":"1254","attributes":{},"color":"rgb(211,51,150)","size":1.0},{"source":"37","target":"213","id":"71","attributes":{},"color":"rgb(220,100,175)","size":1.0},{"source":"75","target":"128","id":"230","attributes":{},"color":"rgb(216,78,163)","size":1.0},{"source":"132","target":"50","id":"600","attributes":{},"color":"rgb(153,130,109)","size":1.0},{"source":"104","target":"223","id":"412","attributes":{},"color":"rgb(216,73,161)","size":1.0},{"source":"203","target":"50","id":"1149","attributes":{},"color":"rgb(151,121,105)","size":1.0},{"source":"192","target":"18","id":"1012","attributes":{},"color":"rgb(219,233,212)","size":1.0},{"source":"180","target":"130","id":"946","attributes":{},"color":"rgb(174,120,130)","size":1.0},{"source":"136","target":"64","id":"657","attributes":{},"color":"rgb(142,100,88)","size":1.0},{"source":"192","target":"71","id":"1022","attributes":{},"color":"rgb(228,142,195)","size":1.0},{"source":"198","target":"154","id":"1093","attributes":{},"color":"rgb(227,137,192)","size":1.0},{"source":"206","target":"173","id":"1183","attributes":{},"color":"rgb(211,136,175)","size":1.0},{"source":"136","target":"18","id":"629","attributes":{},"color":"rgb(135,197,109)","size":1.0},{"source":"154","target":"65","id":"763","attributes":{},"color":"rgb(231,158,202)","size":1.0},{"source":"106","target":"41","id":"428","attributes":{},"color":"rgb(226,171,201)","size":1.0},{"source":"41","target":"30","id":"84","attributes":{},"color":"rgb(222,151,191)","size":1.0},{"source":"87","target":"97","id":"340","attributes":{},"color":"rgb(221,102,175)","size":1.0},{"source":"115","target":"50","id":"470","attributes":{},"color":"rgb(154,136,113)","size":1.0},{"source":"84","target":"77","id":"311","attributes":{},"color":"rgb(229,148,198)","size":1.0},{"source":"136","target":"75","id":"665","attributes":{},"color":"rgb(146,119,98)","size":1.0},{"source":"189","target":"136","id":"994","attributes":{},"color":"rgb(149,138,107)","size":1.0},{"source":"77","target":"74","id":"235","attributes":{},"color":"rgb(212,51,150)","size":1.0},{"source":"69","target":"168","id":"192","attributes":{},"color":"rgb(218,86,167)","size":1.0},{"source":"87","target":"30","id":"331","attributes":{},"color":"rgb(221,102,175)","size":1.0},{"source":"130","target":"41","id":"555","attributes":{},"color":"rgb(185,219,171)","size":1.0},{"source":"95","target":"44","id":"363","attributes":{},"color":"rgb(215,72,160)","size":1.0},{"source":"10","target":"133","id":"20","attributes":{},"color":"rgb(217,80,164)","size":1.0},{"source":"80","target":"49","id":"267","attributes":{},"color":"rgb(159,135,117)","size":1.0},{"source":"128","target":"31","id":"533","attributes":{},"color":"rgb(215,74,162)","size":1.0},{"source":"70","target":"86","id":"211","attributes":{},"color":"rgb(193,129,152)","size":1.0},{"source":"70","target":"59","id":"207","attributes":{},"color":"rgb(197,157,166)","size":1.0},{"source":"109","target":"84","id":"445","attributes":{},"color":"rgb(231,164,206)","size":1.0},{"source":"50","target":"44","id":"146","attributes":{},"color":"rgb(155,142,115)","size":1.0},{"source":"128","target":"207","id":"540","attributes":{},"color":"rgb(215,74,162)","size":1.0},{"source":"220","target":"50","id":"1253","attributes":{},"color":"rgb(148,102,96)","size":1.0},{"source":"50","target":"41","id":"145","attributes":{},"color":"rgb(160,208,140)","size":1.0},{"source":"68","target":"106","id":"185","attributes":{},"color":"rgb(220,96,172)","size":1.0},{"source":"105","target":"2","id":"413","attributes":{},"color":"rgb(216,76,162)","size":1.0},{"source":"3","target":"104","id":"4","attributes":{},"color":"rgb(212,53,151)","size":1.0},{"source":"109","target":"80","id":"444","attributes":{},"color":"rgb(159,138,118)","size":1.0},{"source":"53","target":"48","id":"152","attributes":{},"color":"rgb(215,68,158)","size":1.0},{"source":"128","target":"20","id":"532","attributes":{},"color":"rgb(217,81,165)","size":1.0},{"source":"136","target":"114","id":"687","attributes":{},"color":"rgb(143,106,91)","size":1.0},{"source":"163","target":"80","id":"816","attributes":{},"color":"rgb(156,121,110)","size":1.0},{"source":"163","target":"118","id":"820","attributes":{},"color":"rgb(223,150,192)","size":1.0},{"source":"136","target":"135","id":"700","attributes":{},"color":"rgb(144,113,95)","size":1.0},{"source":"200","target":"191","id":"1137","attributes":{},"color":"rgb(174,129,131)","size":1.0},{"source":"136","target":"102","id":"680","attributes":{},"color":"rgb(145,117,97)","size":1.0},{"source":"90","target":"75","id":"351","attributes":{},"color":"rgb(213,57,153)","size":1.0},{"source":"82","target":"157","id":"290","attributes":{},"color":"rgb(214,66,157)","size":1.0},{"source":"69","target":"87","id":"188","attributes":{},"color":"rgb(224,119,184)","size":1.0},{"source":"97","target":"41","id":"376","attributes":{},"color":"rgb(222,151,191)","size":1.0},{"source":"213","target":"41","id":"1218","attributes":{},"color":"rgb(223,158,195)","size":1.0},{"source":"169","target":"70","id":"861","attributes":{},"color":"rgb(194,137,156)","size":1.0},{"source":"9","target":"128","id":"13","attributes":{},"color":"rgb(217,86,167)","size":1.0},{"source":"130","target":"96","id":"578","attributes":{},"color":"rgb(177,136,138)","size":1.0},{"source":"157","target":"53","id":"794","attributes":{},"color":"rgb(213,59,154)","size":1.0},{"source":"203","target":"10","id":"1147","attributes":{},"color":"rgb(216,78,164)","size":1.0},{"source":"194","target":"41","id":"1056","attributes":{},"color":"rgb(222,149,190)","size":1.0},{"source":"173","target":"135","id":"910","attributes":{},"color":"rgb(212,143,178)","size":1.0},{"source":"213","target":"136","id":"1226","attributes":{},"color":"rgb(146,124,100)","size":1.0},{"source":"30","target":"22","id":"52","attributes":{},"color":"rgb(216,78,163)","size":1.0},{"source":"221","target":"41","id":"1256","attributes":{},"color":"rgb(220,141,186)","size":1.0},{"source":"84","target":"70","id":"309","attributes":{},"color":"rgb(209,225,199)","size":1.0},{"source":"68","target":"65","id":"184","attributes":{},"color":"rgb(217,82,165)","size":1.0},{"source":"200","target":"162","id":"1130","attributes":{},"color":"rgb(171,112,123)","size":1.0},{"source":"8","target":"53","id":"10","attributes":{},"color":"rgb(212,50,149)","size":1.0},{"source":"192","target":"148","id":"1034","attributes":{},"color":"rgb(227,136,192)","size":1.0},{"source":"136","target":"71","id":"662","attributes":{},"color":"rgb(143,106,91)","size":1.0},{"source":"172","target":"41","id":"882","attributes":{},"color":"rgb(229,188,209)","size":1.0},{"source":"173","target":"65","id":"901","attributes":{},"color":"rgb(214,153,183)","size":1.0},{"source":"214","target":"50","id":"1228","attributes":{},"color":"rgb(148,102,96)","size":1.0},{"source":"93","target":"106","id":"357","attributes":{},"color":"rgb(217,83,166)","size":1.0},{"source":"55","target":"37","id":"159","attributes":{},"color":"rgb(217,80,164)","size":1.0},{"source":"115","target":"203","id":"476","attributes":{},"color":"rgb(217,81,165)","size":1.0},{"source":"165","target":"50","id":"839","attributes":{},"color":"rgb(149,105,97)","size":1.0},{"source":"96","target":"80","id":"371","attributes":{},"color":"rgb(158,127,113)","size":1.0},{"source":"13","target":"179","id":"27","attributes":{},"color":"rgb(211,46,147)","size":1.0},{"source":"72","target":"51","id":"218","attributes":{},"color":"rgb(211,48,149)","size":1.0},{"source":"200","target":"60","id":"1105","attributes":{},"color":"rgb(171,112,123)","size":1.0},{"source":"53","target":"50","id":"153","attributes":{},"color":"rgb(151,119,104)","size":1.0},{"source":"203","target":"41","id":"1148","attributes":{},"color":"rgb(222,153,192)","size":1.0},{"source":"207","target":"169","id":"1193","attributes":{},"color":"rgb(213,60,155)","size":1.0},{"source":"132","target":"118","id":"605","attributes":{},"color":"rgb(225,162,198)","size":1.0},{"source":"185","target":"114","id":"967","attributes":{},"color":"rgb(213,61,155)","size":1.0},{"source":"136","target":"11","id":"627","attributes":{},"color":"rgb(147,127,101)","size":1.0},{"source":"45","target":"83","id":"106","attributes":{},"color":"rgb(215,73,161)","size":1.0},{"source":"94","target":"18","id":"361","attributes":{},"color":"rgb(200,125,159)","size":1.0},{"source":"136","target":"97","id":"676","attributes":{},"color":"rgb(145,117,96)","size":1.0},{"source":"154","target":"119","id":"779","attributes":{},"color":"rgb(230,152,200)","size":1.0},{"source":"106","target":"84","id":"433","attributes":{},"color":"rgb(232,169,208)","size":1.0},{"source":"75","target":"120","id":"229","attributes":{},"color":"rgb(217,78,163)","size":1.0},{"source":"109","target":"200","id":"449","attributes":{},"color":"rgb(176,145,139)","size":1.0},{"source":"154","target":"22","id":"751","attributes":{},"color":"rgb(232,168,207)","size":1.0},{"source":"213","target":"70","id":"1220","attributes":{},"color":"rgb(195,145,160)","size":1.0},{"source":"168","target":"96","id":"852","attributes":{},"color":"rgb(216,74,161)","size":1.0},{"source":"227","target":"36","id":"1277","attributes":{},"color":"rgb(212,53,151)","size":1.0},{"source":"105","target":"70","id":"418","attributes":{},"color":"rgb(198,162,168)","size":1.0},{"source":"192","target":"24","id":"1013","attributes":{},"color":"rgb(234,175,211)","size":1.0},{"source":"102","target":"194","id":"404","attributes":{},"color":"rgb(213,61,155)","size":1.0},{"source":"198","target":"44","id":"1087","attributes":{},"color":"rgb(215,70,159)","size":1.0},{"source":"205","target":"173","id":"1178","attributes":{},"color":"rgb(213,148,181)","size":1.0},{"source":"37","target":"78","id":"65","attributes":{},"color":"rgb(216,79,164)","size":1.0},{"source":"172","target":"136","id":"891","attributes":{},"color":"rgb(152,154,115)","size":1.0},{"source":"208","target":"10","id":"1194","attributes":{},"color":"rgb(214,65,157)","size":1.0},{"source":"106","target":"50","id":"429","attributes":{},"color":"rgb(155,140,114)","size":1.0},{"source":"193","target":"0","id":"1047","attributes":{},"color":"rgb(214,66,158)","size":1.0},{"source":"70","target":"22","id":"199","attributes":{},"color":"rgb(197,154,164)","size":1.0},{"source":"152","target":"229","id":"742","attributes":{},"color":"rgb(216,76,162)","size":1.0},{"source":"5","target":"217","id":"7","attributes":{},"color":"rgb(212,55,152)","size":1.0},{"source":"69","target":"50","id":"187","attributes":{},"color":"rgb(154,137,113)","size":1.0},{"source":"76","target":"22","id":"232","attributes":{},"color":"rgb(213,61,155)","size":1.0},{"source":"200","target":"173","id":"1132","attributes":{},"color":"rgb(173,214,156)","size":1.0},{"source":"223","target":"130","id":"1267","attributes":{},"color":"rgb(177,133,136)","size":1.0},{"source":"21","target":"36","id":"35","attributes":{},"color":"rgb(213,61,155)","size":1.0},{"source":"147","target":"136","id":"722","attributes":{},"color":"rgb(142,100,88)","size":1.0},{"source":"49","target":"157","id":"117","attributes":{},"color":"rgb(216,73,161)","size":1.0},{"source":"37","target":"18","id":"64","attributes":{},"color":"rgb(209,174,183)","size":1.0},{"source":"202","target":"147","id":"1146","attributes":{},"color":"rgb(208,31,140)","size":1.0},{"source":"70","target":"198","id":"214","attributes":{},"color":"rgb(191,124,149)","size":1.0},{"source":"41","target":"9","id":"77","attributes":{},"color":"rgb(224,161,196)","size":1.0},{"source":"19","target":"11","id":"32","attributes":{},"color":"rgb(215,72,160)","size":1.0},{"source":"160","target":"70","id":"806","attributes":{},"color":"rgb(191,121,148)","size":1.0},{"source":"200","target":"63","id":"1106","attributes":{},"color":"rgb(173,124,129)","size":1.0},{"source":"136","target":"68","id":"659","attributes":{},"color":"rgb(148,131,103)","size":1.0},{"source":"41","target":"19","id":"80","attributes":{},"color":"rgb(222,151,191)","size":1.0},{"source":"136","target":"85","id":"671","attributes":{},"color":"rgb(142,102,89)","size":1.0},{"source":"154","target":"59","id":"762","attributes":{},"color":"rgb(233,170,209)","size":1.0},{"source":"136","target":"109","id":"685","attributes":{},"color":"rgb(148,133,104)","size":1.0},{"source":"93","target":"185","id":"360","attributes":{},"color":"rgb(215,72,160)","size":1.0},{"source":"130","target":"69","id":"566","attributes":{},"color":"rgb(179,148,144)","size":1.0},{"source":"115","target":"84","id":"472","attributes":{},"color":"rgb(232,165,207)","size":1.0},{"source":"185","target":"86","id":"966","attributes":{},"color":"rgb(214,63,156)","size":1.0},{"source":"114","target":"22","id":"466","attributes":{},"color":"rgb(214,67,158)","size":1.0},{"source":"210","target":"50","id":"1198","attributes":{},"color":"rgb(152,123,106)","size":1.0},{"source":"154","target":"37","id":"757","attributes":{},"color":"rgb(235,183,215)","size":1.0},{"source":"109","target":"106","id":"448","attributes":{},"color":"rgb(220,98,173)","size":1.0},{"source":"200","target":"90","id":"1116","attributes":{},"color":"rgb(172,122,128)","size":1.0},{"source":"77","target":"125","id":"237","attributes":{},"color":"rgb(212,53,151)","size":1.0},{"source":"130","target":"25","id":"551","attributes":{},"color":"rgb(175,125,133)","size":1.0},{"source":"223","target":"80","id":"1265","attributes":{},"color":"rgb(157,124,112)","size":1.0},{"source":"10","target":"25","id":"16","attributes":{},"color":"rgb(215,71,160)","size":1.0},{"source":"172","target":"208","id":"895","attributes":{},"color":"rgb(218,87,168)","size":1.0},{"source":"195","target":"192","id":"1081","attributes":{},"color":"rgb(231,160,204)","size":1.0},{"source":"129","target":"80","id":"541","attributes":{},"color":"rgb(154,105,102)","size":1.0},{"source":"200","target":"65","id":"1107","attributes":{},"color":"rgb(175,135,134)","size":1.0},{"source":"204","target":"50","id":"1162","attributes":{},"color":"rgb(154,135,112)","size":1.0},{"source":"154","target":"132","id":"785","attributes":{},"color":"rgb(231,162,205)","size":1.0},{"source":"22","target":"104","id":"40","attributes":{},"color":"rgb(218,86,167)","size":1.0},{"source":"203","target":"84","id":"1151","attributes":{},"color":"rgb(229,150,199)","size":1.0},{"source":"90","target":"83","id":"352","attributes":{},"color":"rgb(210,45,147)","size":1.0},{"source":"127","target":"80","id":"524","attributes":{},"color":"rgb(157,125,112)","size":1.0},{"source":"175","target":"50","id":"919","attributes":{},"color":"rgb(151,119,104)","size":1.0},{"source":"10","target":"223","id":"21","attributes":{},"color":"rgb(217,79,164)","size":1.0},{"source":"130","target":"55","id":"562","attributes":{},"color":"rgb(174,117,128)","size":1.0},{"source":"189","target":"10","id":"978","attributes":{},"color":"rgb(220,98,173)","size":1.0},{"source":"74","target":"172","id":"223","attributes":{},"color":"rgb(218,88,168)","size":1.0},{"source":"195","target":"102","id":"1073","attributes":{},"color":"rgb(215,69,159)","size":1.0},{"source":"98","target":"93","id":"389","attributes":{},"color":"rgb(215,68,158)","size":1.0},{"source":"93","target":"111","id":"358","attributes":{},"color":"rgb(217,83,166)","size":1.0},{"source":"190","target":"130","id":"1001","attributes":{},"color":"rgb(174,117,129)","size":1.0},{"source":"145","target":"70","id":"718","attributes":{},"color":"rgb(193,134,154)","size":1.0},{"source":"73","target":"50","id":"221","attributes":{},"color":"rgb(148,102,96)","size":1.0},{"source":"50","target":"22","id":"132","attributes":{},"color":"rgb(154,135,112)","size":1.0},{"source":"127","target":"118","id":"529","attributes":{},"color":"rgb(224,155,194)","size":1.0},{"source":"132","target":"84","id":"603","attributes":{},"color":"rgb(230,159,203)","size":1.0},{"source":"127","target":"106","id":"527","attributes":{},"color":"rgb(218,86,167)","size":1.0},{"source":"80","target":"25","id":"256","attributes":{},"color":"rgb(156,117,108)","size":1.0},{"source":"154","target":"8","id":"747","attributes":{},"color":"rgb(228,140,194)","size":1.0},{"source":"154","target":"136","id":"788","attributes":{},"color":"rgb(161,207,141)","size":1.0},{"source":"34","target":"61","id":"57","attributes":{},"color":"rgb(213,62,155)","size":1.0},{"source":"44","target":"41","id":"99","attributes":{},"color":"rgb(226,174,202)","size":1.0},{"source":"136","target":"41","id":"644","attributes":{},"color":"rgb(154,206,132)","size":1.0},{"source":"193","target":"70","id":"1050","attributes":{},"color":"rgb(193,135,155)","size":1.0},{"source":"176","target":"159","id":"933","attributes":{},"color":"rgb(216,79,164)","size":1.0},{"source":"203","target":"168","id":"1156","attributes":{},"color":"rgb(215,71,160)","size":1.0},{"source":"27","target":"136","id":"48","attributes":{},"color":"rgb(144,108,92)","size":1.0},{"source":"49","target":"176","id":"118","attributes":{},"color":"rgb(219,91,170)","size":1.0},{"source":"152","target":"1","id":"730","attributes":{},"color":"rgb(216,74,162)","size":1.0},{"source":"53","target":"118","id":"154","attributes":{},"color":"rgb(223,151,192)","size":1.0},{"source":"93","target":"157","id":"359","attributes":{},"color":"rgb(213,60,154)","size":1.0},{"source":"146","target":"136","id":"720","attributes":{},"color":"rgb(143,106,91)","size":1.0},{"source":"200","target":"48","id":"1103","attributes":{},"color":"rgb(175,136,135)","size":1.0},{"source":"22","target":"164","id":"42","attributes":{},"color":"rgb(219,91,170)","size":1.0},{"source":"136","target":"92","id":"674","attributes":{},"color":"rgb(143,103,89)","size":1.0},{"source":"84","target":"179","id":"316","attributes":{},"color":"rgb(228,142,195)","size":1.0},{"source":"118","target":"7","id":"479","attributes":{},"color":"rgb(220,134,184)","size":1.0},{"source":"69","target":"119","id":"190","attributes":{},"color":"rgb(217,80,164)","size":1.0},{"source":"141","target":"9","id":"710","attributes":{},"color":"rgb(213,60,155)","size":1.0},{"source":"140","target":"136","id":"709","attributes":{},"color":"rgb(142,100,88)","size":1.0},{"source":"109","target":"50","id":"442","attributes":{},"color":"rgb(154,135,112)","size":1.0},{"source":"134","target":"80","id":"611","attributes":{},"color":"rgb(159,135,117)","size":1.0},{"source":"154","target":"152","id":"789","attributes":{},"color":"rgb(233,172,210)","size":1.0},{"source":"203","target":"200","id":"1160","attributes":{},"color":"rgb(174,131,133)","size":1.0},{"source":"206","target":"136","id":"1182","attributes":{},"color":"rgb(143,106,91)","size":1.0},{"source":"191","target":"173","id":"1009","attributes":{},"color":"rgb(213,147,180)","size":1.0},{"source":"136","target":"105","id":"683","attributes":{},"color":"rgb(149,140,108)","size":1.0},{"source":"191","target":"80","id":"1006","attributes":{},"color":"rgb(157,122,110)","size":1.0},{"source":"136","target":"44","id":"646","attributes":{},"color":"rgb(149,140,108)","size":1.0},{"source":"130","target":"50","id":"561","attributes":{},"color":"rgb(114,188,84)","size":1.0},{"source":"109","target":"70","id":"443","attributes":{},"color":"rgb(197,154,164)","size":1.0},{"source":"182","target":"50","id":"952","attributes":{},"color":"rgb(150,113,101)","size":1.0},{"source":"65","target":"48","id":"179","attributes":{},"color":"rgb(216,74,161)","size":1.0},{"source":"200","target":"194","id":"1140","attributes":{},"color":"rgb(173,128,131)","size":1.0},{"source":"205","target":"130","id":"1175","attributes":{},"color":"rgb(176,131,136)","size":1.0},{"source":"219","target":"34","id":"1246","attributes":{},"color":"rgb(213,59,154)","size":1.0},{"source":"154","target":"2","id":"745","attributes":{},"color":"rgb(228,142,195)","size":1.0},{"source":"111","target":"80","id":"456","attributes":{},"color":"rgb(160,142,121)","size":1.0},{"source":"119","target":"70","id":"492","attributes":{},"color":"rgb(194,139,157)","size":1.0},{"source":"134","target":"135","id":"613","attributes":{},"color":"rgb(215,71,160)","size":1.0},{"source":"219","target":"50","id":"1248","attributes":{},"color":"rgb(152,124,106)","size":1.0},{"source":"162","target":"70","id":"810","attributes":{},"color":"rgb(191,121,148)","size":1.0},{"source":"50","target":"34","id":"140","attributes":{},"color":"rgb(150,112,100)","size":1.0},{"source":"123","target":"50","id":"511","attributes":{},"color":"rgb(149,110,100)","size":1.0},{"source":"80","target":"29","id":"258","attributes":{},"color":"rgb(154,105,102)","size":1.0},{"source":"118","target":"84","id":"485","attributes":{},"color":"rgb(238,238,235)","size":1.0},{"source":"140","target":"99","id":"708","attributes":{},"color":"rgb(208,31,140)","size":1.0},{"source":"82","target":"219","id":"292","attributes":{},"color":"rgb(215,73,161)","size":1.0},{"source":"152","target":"80","id":"734","attributes":{},"color":"rgb(160,142,121)","size":1.0},{"source":"185","target":"136","id":"969","attributes":{},"color":"rgb(147,127,101)","size":1.0},{"source":"200","target":"68","id":"1109","attributes":{},"color":"rgb(176,143,138)","size":1.0},{"source":"192","target":"183","id":"1044","attributes":{},"color":"rgb(227,136,192)","size":1.0},{"source":"87","target":"25","id":"330","attributes":{},"color":"rgb(220,97,173)","size":1.0},{"source":"171","target":"19","id":"868","attributes":{},"color":"rgb(216,79,164)","size":1.0},{"source":"127","target":"109","id":"528","attributes":{},"color":"rgb(217,81,165)","size":1.0},{"source":"72","target":"37","id":"217","attributes":{},"color":"rgb(219,93,171)","size":1.0},{"source":"80","target":"22","id":"255","attributes":{},"color":"rgb(159,138,118)","size":1.0},{"source":"122","target":"145","id":"508","attributes":{},"color":"rgb(212,57,152)","size":1.0},{"source":"219","target":"70","id":"1249","attributes":{},"color":"rgb(195,143,159)","size":1.0},{"source":"231","target":"80","id":"1291","attributes":{},"color":"rgb(154,105,102)","size":1.0},{"source":"200","target":"130","id":"1121","attributes":{},"color":"rgb(136,198,111)","size":1.0},{"source":"84","target":"25","id":"299","attributes":{},"color":"rgb(228,143,196)","size":1.0},{"source":"153","target":"136","id":"743","attributes":{},"color":"rgb(142,100,88)","size":1.0},{"source":"154","target":"44","id":"759","attributes":{},"color":"rgb(234,175,211)","size":1.0},{"source":"114","target":"50","id":"467","attributes":{},"color":"rgb(149,108,99)","size":1.0},{"source":"136","target":"33","id":"637","attributes":{},"color":"rgb(142,100,88)","size":1.0},{"source":"228","target":"50","id":"1279","attributes":{},"color":"rgb(148,102,96)","size":1.0},{"source":"152","target":"85","id":"737","attributes":{},"color":"rgb(214,68,158)","size":1.0},{"source":"101","target":"191","id":"395","attributes":{},"color":"rgb(211,50,149)","size":1.0},{"source":"118","target":"24","id":"480","attributes":{},"color":"rgb(227,173,203)","size":1.0},{"source":"200","target":"41","id":"1102","attributes":{},"color":"rgb(182,218,167)","size":1.0},{"source":"51","target":"26","id":"150","attributes":{},"color":"rgb(209,35,142)","size":1.0},{"source":"165","target":"41","id":"838","attributes":{},"color":"rgb(220,137,184)","size":1.0},{"source":"25","target":"69","id":"45","attributes":{},"color":"rgb(216,74,162)","size":1.0},{"source":"130","target":"128","id":"593","attributes":{},"color":"rgb(178,144,142)","size":1.0},{"source":"191","target":"136","id":"1008","attributes":{},"color":"rgb(145,117,96)","size":1.0},{"source":"154","target":"87","id":"770","attributes":{},"color":"rgb(237,192,219)","size":1.0},{"source":"206","target":"24","id":"1180","attributes":{},"color":"rgb(216,73,161)","size":1.0},{"source":"199","target":"50","id":"1094","attributes":{},"color":"rgb(150,113,101)","size":1.0},{"source":"55","target":"69","id":"160","attributes":{},"color":"rgb(214,66,157)","size":1.0},{"source":"205","target":"50","id":"1169","attributes":{},"color":"rgb(151,120,105)","size":1.0},{"source":"154","target":"135","id":"787","attributes":{},"color":"rgb(229,148,198)","size":1.0},{"source":"19","target":"112","id":"33","attributes":{},"color":"rgb(211,49,149)","size":1.0},{"source":"82","target":"44","id":"287","attributes":{},"color":"rgb(219,91,170)","size":1.0},{"source":"132","target":"70","id":"601","attributes":{},"color":"rgb(196,149,162)","size":1.0},{"source":"203","target":"130","id":"1153","attributes":{},"color":"rgb(176,132,136)","size":1.0},{"source":"200","target":"18","id":"1099","attributes":{},"color":"rgb(163,210,144)","size":1.0},{"source":"203","target":"109","id":"1152","attributes":{},"color":"rgb(216,80,164)","size":1.0},{"source":"198","target":"136","id":"1091","attributes":{},"color":"rgb(142,102,89)","size":1.0},{"source":"192","target":"118","id":"1029","attributes":{},"color":"rgb(239,242,237)","size":1.0},{"source":"96","target":"50","id":"369","attributes":{},"color":"rgb(152,125,107)","size":1.0},{"source":"160","target":"80","id":"807","attributes":{},"color":"rgb(154,105,102)","size":1.0},{"source":"230","target":"80","id":"1290","attributes":{},"color":"rgb(154,105,102)","size":1.0},{"source":"80","target":"27","id":"257","attributes":{},"color":"rgb(155,113,106)","size":1.0},{"source":"132","target":"20","id":"598","attributes":{},"color":"rgb(216,78,163)","size":1.0},{"source":"69","target":"203","id":"193","attributes":{},"color":"rgb(217,81,165)","size":1.0},{"source":"192","target":"172","id":"1040","attributes":{},"color":"rgb(236,190,218)","size":1.0},{"source":"176","target":"50","id":"924","attributes":{},"color":"rgb(154,135,112)","size":1.0},{"source":"70","target":"133","id":"212","attributes":{},"color":"rgb(195,142,158)","size":1.0},{"source":"195","target":"69","id":"1069","attributes":{},"color":"rgb(218,86,168)","size":1.0},{"source":"136","target":"72","id":"663","attributes":{},"color":"rgb(145,117,97)","size":1.0},{"source":"176","target":"175","id":"934","attributes":{},"color":"rgb(216,77,163)","size":1.0},{"source":"80","target":"1","id":"243","attributes":{},"color":"rgb(155,114,107)","size":1.0},{"source":"50","target":"35","id":"141","attributes":{},"color":"rgb(155,139,114)","size":1.0},{"source":"84","target":"69","id":"308","attributes":{},"color":"rgb(232,166,207)","size":1.0},{"source":"80","target":"55","id":"270","attributes":{},"color":"rgb(154,108,104)","size":1.0},{"source":"84","target":"168","id":"315","attributes":{},"color":"rgb(230,155,201)","size":1.0},{"source":"229","target":"77","id":"1285","attributes":{},"color":"rgb(212,55,152)","size":1.0},{"source":"136","target":"51","id":"651","attributes":{},"color":"rgb(143,103,90)","size":1.0},{"source":"84","target":"11","id":"297","attributes":{},"color":"rgb(230,158,203)","size":1.0},{"source":"212","target":"111","id":"1214","attributes":{},"color":"rgb(215,70,159)","size":1.0},{"source":"136","target":"49","id":"649","attributes":{},"color":"rgb(148,130,103)","size":1.0},{"source":"172","target":"50","id":"883","attributes":{},"color":"rgb(158,156,122)","size":1.0},{"source":"70","target":"44","id":"203","attributes":{},"color":"rgb(198,161,168)","size":1.0},{"source":"192","target":"11","id":"1011","attributes":{},"color":"rgb(231,163,205)","size":1.0},{"source":"223","target":"84","id":"1266","attributes":{},"color":"rgb(229,151,199)","size":1.0},{"source":"189","target":"50","id":"985","attributes":{},"color":"rgb(155,141,115)","size":1.0},{"source":"136","target":"62","id":"655","attributes":{},"color":"rgb(142,100,88)","size":1.0},{"source":"213","target":"154","id":"1227","attributes":{},"color":"rgb(231,159,203)","size":1.0},{"source":"131","target":"219","id":"597","attributes":{},"color":"rgb(212,56,152)","size":1.0},{"source":"2","target":"152","id":"3","attributes":{},"color":"rgb(215,73,161)","size":1.0},{"source":"80","target":"45","id":"265","attributes":{},"color":"rgb(160,143,121)","size":1.0},{"source":"97","target":"70","id":"381","attributes":{},"color":"rgb(194,138,156)","size":1.0},{"source":"163","target":"70","id":"815","attributes":{},"color":"rgb(194,137,156)","size":1.0},{"source":"106","target":"80","id":"432","attributes":{},"color":"rgb(160,142,121)","size":1.0},{"source":"80","target":"5","id":"246","attributes":{},"color":"rgb(155,112,106)","size":1.0},{"source":"80","target":"125","id":"281","attributes":{},"color":"rgb(155,113,106)","size":1.0},{"source":"190","target":"120","id":"1000","attributes":{},"color":"rgb(214,62,156)","size":1.0},{"source":"41","target":"35","id":"86","attributes":{},"color":"rgb(226,171,201)","size":1.0},{"source":"109","target":"105","id":"447","attributes":{},"color":"rgb(220,101,175)","size":1.0},{"source":"159","target":"130","id":"803","attributes":{},"color":"rgb(176,132,136)","size":1.0},{"source":"194","target":"154","id":"1063","attributes":{},"color":"rgb(229,150,199)","size":1.0},{"source":"194","target":"173","id":"1064","attributes":{},"color":"rgb(213,145,179)","size":1.0},{"source":"223","target":"45","id":"1261","attributes":{},"color":"rgb(218,85,167)","size":1.0},{"source":"80","target":"19","id":"253","attributes":{},"color":"rgb(157,122,111)","size":1.0},{"source":"172","target":"96","id":"887","attributes":{},"color":"rgb(221,104,176)","size":1.0},{"source":"50","target":"11","id":"128","attributes":{},"color":"rgb(153,129,109)","size":1.0},{"source":"111","target":"44","id":"454","attributes":{},"color":"rgb(221,105,177)","size":1.0},{"source":"70","target":"11","id":"197","attributes":{},"color":"rgb(196,148,161)","size":1.0},{"source":"70","target":"211","id":"215","attributes":{},"color":"rgb(192,128,151)","size":1.0},{"source":"154","target":"75","id":"766","attributes":{},"color":"rgb(230,154,201)","size":1.0},{"source":"173","target":"154","id":"912","attributes":{},"color":"rgb(229,237,224)","size":1.0},{"source":"189","target":"154","id":"995","attributes":{},"color":"rgb(233,173,210)","size":1.0},{"source":"211","target":"20","id":"1205","attributes":{},"color":"rgb(213,57,153)","size":1.0},{"source":"102","target":"41","id":"396","attributes":{},"color":"rgb(222,151,191)","size":1.0},{"source":"154","target":"77","id":"767","attributes":{},"color":"rgb(230,152,200)","size":1.0},{"source":"200","target":"84","id":"1115","attributes":{},"color":"rgb(189,216,174)","size":1.0},{"source":"192","target":"66","id":"1019","attributes":{},"color":"rgb(227,136,192)","size":1.0},{"source":"55","target":"105","id":"161","attributes":{},"color":"rgb(215,72,160)","size":1.0},{"source":"205","target":"69","id":"1170","attributes":{},"color":"rgb(217,80,165)","size":1.0},{"source":"136","target":"54","id":"653","attributes":{},"color":"rgb(142,100,88)","size":1.0},{"source":"141","target":"134","id":"711","attributes":{},"color":"rgb(213,63,156)","size":1.0},{"source":"11","target":"68","id":"22","attributes":{},"color":"rgb(218,86,167)","size":1.0},{"source":"88","target":"50","id":"345","attributes":{},"color":"rgb(150,111,100)","size":1.0},{"source":"95","target":"49","id":"364","attributes":{},"color":"rgb(214,62,156)","size":1.0},{"source":"142","target":"70","id":"714","attributes":{},"color":"rgb(191,121,148)","size":1.0},{"source":"168","target":"48","id":"847","attributes":{},"color":"rgb(216,75,162)","size":1.0},{"source":"96","target":"149","id":"375","attributes":{},"color":"rgb(213,57,153)","size":1.0},{"source":"105","target":"213","id":"426","attributes":{},"color":"rgb(219,92,171)","size":1.0},{"source":"120","target":"36","id":"498","attributes":{},"color":"rgb(217,83,166)","size":1.0},{"source":"172","target":"80","id":"885","attributes":{},"color":"rgb(163,159,129)","size":1.0},{"source":"37","target":"87","id":"66","attributes":{},"color":"rgb(226,133,191)","size":1.0},{"source":"80","target":"9","id":"248","attributes":{},"color":"rgb(158,132,116)","size":1.0},{"source":"31","target":"63","id":"55","attributes":{},"color":"rgb(212,55,152)","size":1.0},{"source":"183","target":"118","id":"959","attributes":{},"color":"rgb(220,134,184)","size":1.0},{"source":"50","target":"1","id":"121","attributes":{},"color":"rgb(150,111,100)","size":1.0},{"source":"154","target":"70","id":"765","attributes":{},"color":"rgb(210,228,201)","size":1.0},{"source":"130","target":"79","id":"571","attributes":{},"color":"rgb(177,135,137)","size":1.0},{"source":"118","target":"87","id":"486","attributes":{},"color":"rgb(230,191,212)","size":1.0},{"source":"130","target":"76","id":"568","attributes":{},"color":"rgb(173,113,127)","size":1.0},{"source":"48","target":"11","id":"111","attributes":{},"color":"rgb(216,78,163)","size":1.0},{"source":"84","target":"37","id":"303","attributes":{},"color":"rgb(234,180,214)","size":1.0},{"source":"168","target":"50","id":"848","attributes":{},"color":"rgb(152,126,107)","size":1.0},{"source":"185","target":"50","id":"963","attributes":{},"color":"rgb(153,129,109)","size":1.0},{"source":"137","target":"136","id":"702","attributes":{},"color":"rgb(143,106,91)","size":1.0},{"source":"125","target":"50","id":"517","attributes":{},"color":"rgb(150,111,100)","size":1.0},{"source":"111","target":"82","id":"457","attributes":{},"color":"rgb(218,89,169)","size":1.0},{"source":"195","target":"70","id":"1070","attributes":{},"color":"rgb(195,145,160)","size":1.0},{"source":"205","target":"154","id":"1177","attributes":{},"color":"rgb(230,153,200)","size":1.0},{"source":"194","target":"136","id":"1062","attributes":{},"color":"rgb(145,115,96)","size":1.0},{"source":"195","target":"146","id":"1078","attributes":{},"color":"rgb(213,58,154)","size":1.0},{"source":"190","target":"172","id":"1003","attributes":{},"color":"rgb(218,86,167)","size":1.0},{"source":"80","target":"203","id":"283","attributes":{},"color":"rgb(157,124,112)","size":1.0},{"source":"83","target":"106","id":"294","attributes":{},"color":"rgb(215,72,161)","size":1.0},{"source":"130","target":"19","id":"549","attributes":{},"color":"rgb(176,131,135)","size":1.0},{"source":"136","target":"79","id":"666","attributes":{},"color":"rgb(146,121,99)","size":1.0},{"source":"154","target":"120","id":"780","attributes":{},"color":"rgb(232,165,206)","size":1.0},{"source":"164","target":"215","id":"836","attributes":{},"color":"rgb(214,65,157)","size":1.0},{"source":"120","target":"80","id":"501","attributes":{},"color":"rgb(159,135,117)","size":1.0},{"source":"172","target":"109","id":"888","attributes":{},"color":"rgb(223,115,181)","size":1.0},{"source":"216","target":"192","id":"1233","attributes":{},"color":"rgb(227,136,192)","size":1.0},{"source":"50","target":"25","id":"133","attributes":{},"color":"rgb(150,114,102)","size":1.0},{"source":"45","target":"43","id":"105","attributes":{},"color":"rgb(215,69,159)","size":1.0},{"source":"21","target":"49","id":"36","attributes":{},"color":"rgb(214,66,158)","size":1.0},{"source":"192","target":"152","id":"1035","attributes":{},"color":"rgb(233,173,210)","size":1.0},{"source":"195","target":"41","id":"1067","attributes":{},"color":"rgb(223,158,195)","size":1.0},{"source":"88","target":"104","id":"348","attributes":{},"color":"rgb(214,62,156)","size":1.0},{"source":"1","target":"36","id":"1","attributes":{},"color":"rgb(213,62,155)","size":1.0},{"source":"50","target":"10","id":"127","attributes":{},"color":"rgb(154,134,111)","size":1.0},{"source":"80","target":"91","id":"279","attributes":{},"color":"rgb(154,107,103)","size":1.0},{"source":"136","target":"82","id":"668","attributes":{},"color":"rgb(146,123,100)","size":1.0},{"source":"157","target":"136","id":"797","attributes":{},"color":"rgb(145,114,95)","size":1.0},{"source":"136","target":"103","id":"681","attributes":{},"color":"rgb(144,112,94)","size":1.0},{"source":"98","target":"41","id":"384","attributes":{},"color":"rgb(223,156,194)","size":1.0},{"source":"192","target":"111","id":"1028","attributes":{},"color":"rgb(233,173,210)","size":1.0},{"source":"212","target":"44","id":"1212","attributes":{},"color":"rgb(215,72,160)","size":1.0},{"source":"36","target":"84","id":"62","attributes":{},"color":"rgb(230,156,202)","size":1.0},{"source":"9","target":"106","id":"12","attributes":{},"color":"rgb(219,93,171)","size":1.0},{"source":"164","target":"41","id":"829","attributes":{},"color":"rgb(225,164,198)","size":1.0},{"source":"192","target":"191","id":"1046","attributes":{},"color":"rgb(230,153,200)","size":1.0},{"source":"70","target":"69","id":"209","attributes":{},"color":"rgb(197,156,165)","size":1.0},{"source":"130","target":"9","id":"544","attributes":{},"color":"rgb(178,141,140)","size":1.0},{"source":"163","target":"132","id":"824","attributes":{},"color":"rgb(215,71,160)","size":1.0},{"source":"224","target":"93","id":"1270","attributes":{},"color":"rgb(211,50,149)","size":1.0},{"source":"204","target":"41","id":"1161","attributes":{},"color":"rgb(225,167,199)","size":1.0},{"source":"45","target":"41","id":"104","attributes":{},"color":"rgb(226,172,201)","size":1.0},{"source":"154","target":"0","id":"744","attributes":{},"color":"rgb(231,160,204)","size":1.0},{"source":"95","target":"80","id":"366","attributes":{},"color":"rgb(154,109,104)","size":1.0},{"source":"169","target":"136","id":"864","attributes":{},"color":"rgb(145,116,96)","size":1.0},{"source":"210","target":"154","id":"1204","attributes":{},"color":"rgb(230,156,201)","size":1.0},{"source":"229","target":"50","id":"1283","attributes":{},"color":"rgb(150,113,101)","size":1.0},{"source":"200","target":"83","id":"1114","attributes":{},"color":"rgb(172,119,127)","size":1.0},{"source":"173","target":"118","id":"908","attributes":{},"color":"rgb(223,236,217)","size":1.0},{"source":"10","target":"61","id":"17","attributes":{},"color":"rgb(217,84,166)","size":1.0},{"source":"141","target":"136","id":"712","attributes":{},"color":"rgb(143,105,91)","size":1.0},{"source":"87","target":"41","id":"332","attributes":{},"color":"rgb(229,191,211)","size":1.0},{"source":"136","target":"128","id":"695","attributes":{},"color":"rgb(147,130,103)","size":1.0},{"source":"189","target":"87","id":"989","attributes":{},"color":"rgb(224,123,186)","size":1.0},{"source":"38","target":"84","id":"73","attributes":{},"color":"rgb(226,136,192)","size":1.0},{"source":"154","target":"34","id":"755","attributes":{},"color":"rgb(228,144,196)","size":1.0},{"source":"181","target":"50","id":"949","attributes":{},"color":"rgb(149,109,99)","size":1.0},{"source":"112","target":"175","id":"465","attributes":{},"color":"rgb(211,48,148)","size":1.0},{"source":"173","target":"70","id":"903","attributes":{},"color":"rgb(194,223,181)","size":1.0},{"source":"41","target":"4","id":"76","attributes":{},"color":"rgb(220,137,184)","size":1.0},{"source":"80","target":"77","id":"276","attributes":{},"color":"rgb(157,122,111)","size":1.0},{"source":"149","target":"210","id":"725","attributes":{},"color":"rgb(212,56,152)","size":1.0},{"source":"211","target":"84","id":"1208","attributes":{},"color":"rgb(227,138,193)","size":1.0},{"source":"218","target":"154","id":"1244","attributes":{},"color":"rgb(228,141,194)","size":1.0},{"source":"50","target":"30","id":"136","attributes":{},"color":"rgb(151,120,104)","size":1.0},{"source":"130","target":"110","id":"584","attributes":{},"color":"rgb(176,129,134)","size":1.0},{"source":"133","target":"130","id":"608","attributes":{},"color":"rgb(177,134,137)","size":1.0},{"source":"41","target":"193","id":"91","attributes":{},"color":"rgb(221,147,189)","size":1.0},{"source":"69","target":"125","id":"191","attributes":{},"color":"rgb(215,71,160)","size":1.0},{"source":"127","target":"0","id":"521","attributes":{},"color":"rgb(216,73,161)","size":1.0},{"source":"135","target":"70","id":"618","attributes":{},"color":"rgb(193,134,155)","size":1.0},{"source":"80","target":"128","id":"282","attributes":{},"color":"rgb(159,135,117)","size":1.0},{"source":"99","target":"26","id":"390","attributes":{},"color":"rgb(209,35,142)","size":1.0},{"source":"164","target":"128","id":"833","attributes":{},"color":"rgb(218,89,169)","size":1.0},{"source":"136","target":"43","id":"645","attributes":{},"color":"rgb(143,103,90)","size":1.0},{"source":"43","target":"11","id":"96","attributes":{},"color":"rgb(213,58,153)","size":1.0},{"source":"130","target":"44","id":"556","attributes":{},"color":"rgb(180,153,146)","size":1.0},{"source":"198","target":"130","id":"1090","attributes":{},"color":"rgb(173,116,128)","size":1.0},{"source":"159","target":"168","id":"805","attributes":{},"color":"rgb(215,70,159)","size":1.0},{"source":"200","target":"137","id":"1124","attributes":{},"color":"rgb(172,118,126)","size":1.0},{"source":"10","target":"8","id":"15","attributes":{},"color":"rgb(214,65,157)","size":1.0},{"source":"59","target":"146","id":"168","attributes":{},"color":"rgb(215,69,159)","size":1.0},{"source":"77","target":"50","id":"234","attributes":{},"color":"rgb(151,119,104)","size":1.0},{"source":"200","target":"118","id":"1119","attributes":{},"color":"rgb(183,219,169)","size":1.0},{"source":"130","target":"109","id":"583","attributes":{},"color":"rgb(179,146,143)","size":1.0},{"source":"145","target":"13","id":"717","attributes":{},"color":"rgb(211,48,148)","size":1.0},{"source":"41","target":"132","id":"90","attributes":{},"color":"rgb(224,161,196)","size":1.0},{"source":"169","target":"49","id":"859","attributes":{},"color":"rgb(216,74,162)","size":1.0},{"source":"215","target":"150","id":"1231","attributes":{},"color":"rgb(209,39,144)","size":1.0},{"source":"217","target":"41","id":"1235","attributes":{},"color":"rgb(223,154,193)","size":1.0},{"source":"200","target":"154","id":"1127","attributes":{},"color":"rgb(190,219,176)","size":1.0},{"source":"117","target":"80","id":"478","attributes":{},"color":"rgb(154,105,102)","size":1.0},{"source":"117","target":"0","id":"477","attributes":{},"color":"rgb(212,53,151)","size":1.0},{"source":"50","target":"49","id":"149","attributes":{},"color":"rgb(154,133,111)","size":1.0},{"source":"105","target":"63","id":"417","attributes":{},"color":"rgb(217,80,164)","size":1.0},{"source":"136","target":"84","id":"670","attributes":{},"color":"rgb(160,203,139)","size":1.0},{"source":"136","target":"21","id":"631","attributes":{},"color":"rgb(143,108,92)","size":1.0},{"source":"192","target":"168","id":"1039","attributes":{},"color":"rgb(231,160,203)","size":1.0},{"source":"200","target":"174","id":"1133","attributes":{},"color":"rgb(171,112,123)","size":1.0},{"source":"4","target":"168","id":"6","attributes":{},"color":"rgb(212,55,152)","size":1.0},{"source":"156","target":"24","id":"791","attributes":{},"color":"rgb(215,67,158)","size":1.0},{"source":"207","target":"130","id":"1190","attributes":{},"color":"rgb(176,129,135)","size":1.0},{"source":"210","target":"119","id":"1203","attributes":{},"color":"rgb(214,66,157)","size":1.0},{"source":"157","target":"70","id":"795","attributes":{},"color":"rgb(194,136,155)","size":1.0},{"source":"118","target":"66","id":"482","attributes":{},"color":"rgb(220,134,184)","size":1.0},{"source":"80","target":"41","id":"262","attributes":{},"color":"rgb(165,211,146)","size":1.0},{"source":"136","target":"30","id":"635","attributes":{},"color":"rgb(145,117,97)","size":1.0},{"source":"229","target":"176","id":"1289","attributes":{},"color":"rgb(215,71,160)","size":1.0},{"source":"130","target":"120","id":"590","attributes":{},"color":"rgb(179,144,142)","size":1.0},{"source":"50","target":"38","id":"144","attributes":{},"color":"rgb(149,107,98)","size":1.0},{"source":"192","target":"135","id":"1031","attributes":{},"color":"rgb(229,149,198)","size":1.0},{"source":"37","target":"101","id":"67","attributes":{},"color":"rgb(217,82,165)","size":1.0},{"source":"152","target":"84","id":"736","attributes":{},"color":"rgb(232,169,208)","size":1.0},{"source":"49","target":"70","id":"115","attributes":{},"color":"rgb(197,152,163)","size":1.0},{"source":"50","target":"33","id":"139","attributes":{},"color":"rgb(148,102,96)","size":1.0},{"source":"84","target":"65","id":"307","attributes":{},"color":"rgb(230,154,201)","size":1.0},{"source":"154","target":"111","id":"777","attributes":{},"color":"rgb(233,172,210)","size":1.0},{"source":"199","target":"136","id":"1095","attributes":{},"color":"rgb(144,111,94)","size":1.0},{"source":"200","target":"193","id":"1139","attributes":{},"color":"rgb(173,126,130)","size":1.0},{"source":"41","target":"25","id":"82","attributes":{},"color":"rgb(221,146,189)","size":1.0},{"source":"122","target":"182","id":"509","attributes":{},"color":"rgb(212,54,151)","size":1.0},{"source":"127","target":"189","id":"530","attributes":{},"color":"rgb(218,87,168)","size":1.0},{"source":"120","target":"229","id":"505","attributes":{},"color":"rgb(215,69,159)","size":1.0},{"source":"154","target":"4","id":"746","attributes":{},"color":"rgb(227,138,193)","size":1.0},{"source":"49","target":"182","id":"119","attributes":{},"color":"rgb(215,69,159)","size":1.0},{"source":"176","target":"87","id":"927","attributes":{},"color":"rgb(223,118,183)","size":1.0},{"source":"41","target":"0","id":"74","attributes":{},"color":"rgb(224,159,195)","size":1.0},{"source":"80","target":"11","id":"250","attributes":{},"color":"rgb(158,132,115)","size":1.0},{"source":"63","target":"24","id":"177","attributes":{},"color":"rgb(217,78,163)","size":1.0},{"source":"109","target":"20","id":"436","attributes":{},"color":"rgb(217,84,166)","size":1.0},{"source":"101","target":"87","id":"394","attributes":{},"color":"rgb(218,90,169)","size":1.0},{"source":"130","target":"81","id":"573","attributes":{},"color":"rgb(173,113,127)","size":1.0},{"source":"130","target":"118","id":"588","attributes":{},"color":"rgb(186,220,172)","size":1.0},{"source":"165","target":"70","id":"840","attributes":{},"color":"rgb(192,124,150)","size":1.0},{"source":"207","target":"131","id":"1191","attributes":{},"color":"rgb(211,50,150)","size":1.0},{"source":"130","target":"61","id":"564","attributes":{},"color":"rgb(177,138,139)","size":1.0},{"source":"192","target":"154","id":"1036","attributes":{},"color":"rgb(246,243,244)","size":1.0},{"source":"105","target":"102","id":"422","attributes":{},"color":"rgb(218,86,167)","size":1.0},{"source":"189","target":"130","id":"992","attributes":{},"color":"rgb(180,152,146)","size":1.0},{"source":"157","target":"80","id":"796","attributes":{},"color":"rgb(156,119,109)","size":1.0},{"source":"136","target":"9","id":"625","attributes":{},"color":"rgb(147,127,102)","size":1.0},{"source":"185","target":"80","id":"964","attributes":{},"color":"rgb(158,132,115)","size":1.0},{"source":"107","target":"80","id":"435","attributes":{},"color":"rgb(154,105,102)","size":1.0},{"source":"176","target":"154","id":"932","attributes":{},"color":"rgb(232,168,207)","size":1.0},{"source":"131","target":"80","id":"595","attributes":{},"color":"rgb(155,111,105)","size":1.0},{"source":"152","target":"41","id":"731","attributes":{},"color":"rgb(226,171,201)","size":1.0},{"source":"80","target":"122","id":"280","attributes":{},"color":"rgb(156,121,110)","size":1.0},{"source":"154","target":"105","id":"775","attributes":{},"color":"rgb(234,175,211)","size":1.0},{"source":"228","target":"130","id":"1280","attributes":{},"color":"rgb(173,113,127)","size":1.0},{"source":"50","target":"20","id":"131","attributes":{},"color":"rgb(152,125,107)","size":1.0},{"source":"136","target":"36","id":"640","attributes":{},"color":"rgb(146,125,100)","size":1.0},{"source":"69","target":"92","id":"189","attributes":{},"color":"rgb(214,65,157)","size":1.0},{"source":"185","target":"154","id":"970","attributes":{},"color":"rgb(231,162,204)","size":1.0},{"source":"189","target":"106","id":"990","attributes":{},"color":"rgb(221,104,176)","size":1.0},{"source":"44","target":"131","id":"102","attributes":{},"color":"rgb(216,74,161)","size":1.0},{"source":"136","target":"8","id":"624","attributes":{},"color":"rgb(143,105,91)","size":1.0},{"source":"176","target":"200","id":"935","attributes":{},"color":"rgb(176,145,139)","size":1.0},{"source":"175","target":"105","id":"920","attributes":{},"color":"rgb(217,85,167)","size":1.0},{"source":"78","target":"70","id":"238","attributes":{},"color":"rgb(191,124,149)","size":1.0},{"source":"165","target":"35","id":"837","attributes":{},"color":"rgb(215,68,158)","size":1.0},{"source":"84","target":"75","id":"310","attributes":{},"color":"rgb(229,151,199)","size":1.0},{"source":"104","target":"50","id":"409","attributes":{},"color":"rgb(153,128,108)","size":1.0},{"source":"189","target":"45","id":"983","attributes":{},"color":"rgb(221,104,176)","size":1.0},{"source":"229","target":"154","id":"1288","attributes":{},"color":"rgb(228,145,196)","size":1.0},{"source":"97","target":"59","id":"378","attributes":{},"color":"rgb(217,80,164)","size":1.0},{"source":"10","target":"70","id":"18","attributes":{},"color":"rgb(197,153,164)","size":1.0},{"source":"37","target":"181","id":"69","attributes":{},"color":"rgb(217,83,166)","size":1.0},{"source":"50","target":"27","id":"134","attributes":{},"color":"rgb(150,111,100)","size":1.0},{"source":"87","target":"90","id":"339","attributes":{},"color":"rgb(219,95,172)","size":1.0},{"source":"134","target":"192","id":"615","attributes":{},"color":"rgb(232,166,207)","size":1.0},{"source":"200","target":"50","id":"1104","attributes":{},"color":"rgb(111,187,80)","size":1.0},{"source":"130","target":"5","id":"543","attributes":{},"color":"rgb(174,121,130)","size":1.0},{"source":"80","target":"0","id":"242","attributes":{},"color":"rgb(158,130,115)","size":1.0},{"source":"192","target":"173","id":"1041","attributes":{},"color":"rgb(229,238,225)","size":1.0},{"source":"80","target":"18","id":"252","attributes":{},"color":"rgb(146,202,123)","size":1.0},{"source":"134","target":"171","id":"614","attributes":{},"color":"rgb(218,92,170)","size":1.0},{"source":"86","target":"80","id":"326","attributes":{},"color":"rgb(155,113,106)","size":1.0},{"source":"136","target":"119","id":"690","attributes":{},"color":"rgb(145,117,97)","size":1.0},{"source":"200","target":"183","id":"1134","attributes":{},"color":"rgb(171,112,123)","size":1.0},{"source":"80","target":"48","id":"266","attributes":{},"color":"rgb(158,128,114)","size":1.0},{"source":"65","target":"50","id":"180","attributes":{},"color":"rgb(152,125,107)","size":1.0},{"source":"149","target":"215","id":"726","attributes":{},"color":"rgb(210,42,145)","size":1.0},{"source":"159","target":"72","id":"801","attributes":{},"color":"rgb(214,63,156)","size":1.0},{"source":"138","target":"80","id":"704","attributes":{},"color":"rgb(154,109,104)","size":1.0},{"source":"227","target":"50","id":"1278","attributes":{},"color":"rgb(148,102,96)","size":1.0},{"source":"137","target":"171","id":"703","attributes":{},"color":"rgb(214,67,158)","size":1.0},{"source":"136","target":"115","id":"688","attributes":{},"color":"rgb(148,134,105)","size":1.0},{"source":"194","target":"25","id":"1055","attributes":{},"color":"rgb(212,55,152)","size":1.0},{"source":"138","target":"115","id":"705","attributes":{},"color":"rgb(214,66,158)","size":1.0},{"source":"154","target":"130","id":"784","attributes":{},"color":"rgb(192,220,179)","size":1.0},{"source":"103","target":"82","id":"407","attributes":{},"color":"rgb(214,63,156)","size":1.0},{"source":"192","target":"90","id":"1026","attributes":{},"color":"rgb(228,146,197)","size":1.0},{"source":"136","target":"106","id":"684","attributes":{},"color":"rgb(149,137,107)","size":1.0},{"source":"77","target":"9","id":"233","attributes":{},"color":"rgb(215,72,161)","size":1.0},{"source":"182","target":"130","id":"955","attributes":{},"color":"rgb(175,124,132)","size":1.0},{"source":"163","target":"84","id":"817","attributes":{},"color":"rgb(228,147,198)","size":1.0},{"source":"207","target":"45","id":"1187","attributes":{},"color":"rgb(217,82,165)","size":1.0},{"source":"102","target":"192","id":"403","attributes":{},"color":"rgb(230,153,200)","size":1.0},{"source":"172","target":"55","id":"884","attributes":{},"color":"rgb(218,85,167)","size":1.0},{"source":"195","target":"173","id":"1080","attributes":{},"color":"rgb(214,154,184)","size":1.0},{"source":"130","target":"80","id":"572","attributes":{},"color":"rgb(119,190,90)","size":1.0},{"source":"59","target":"50","id":"167","attributes":{},"color":"rgb(154,138,113)","size":1.0},{"source":"128","target":"82","id":"538","attributes":{},"color":"rgb(217,82,165)","size":1.0},{"source":"80","target":"44","id":"264","attributes":{},"color":"rgb(161,145,122)","size":1.0},{"source":"195","target":"50","id":"1068","attributes":{},"color":"rgb(152,126,108)","size":1.0},{"source":"205","target":"80","id":"1172","attributes":{},"color":"rgb(157,123,111)","size":1.0},{"source":"126","target":"70","id":"520","attributes":{},"color":"rgb(191,121,148)","size":1.0},{"source":"30","target":"168","id":"53","attributes":{},"color":"rgb(215,69,159)","size":1.0},{"source":"171","target":"130","id":"877","attributes":{},"color":"rgb(179,147,143)","size":1.0},{"source":"61","target":"84","id":"174","attributes":{},"color":"rgb(230,156,202)","size":1.0},{"source":"35","target":"111","id":"61","attributes":{},"color":"rgb(221,102,175)","size":1.0},{"source":"173","target":"136","id":"911","attributes":{},"color":"rgb(145,202,121)","size":1.0},{"source":"190","target":"80","id":"999","attributes":{},"color":"rgb(154,109,104)","size":1.0},{"source":"192","target":"70","id":"1021","attributes":{},"color":"rgb(210,229,201)","size":1.0},{"source":"104","target":"41","id":"408","attributes":{},"color":"rgb(224,159,195)","size":1.0},{"source":"130","target":"97","id":"579","attributes":{},"color":"rgb(176,130,135)","size":1.0},{"source":"136","target":"0","id":"621","attributes":{},"color":"rgb(147,125,101)","size":1.0},{"source":"157","target":"154","id":"798","attributes":{},"color":"rgb(229,149,198)","size":1.0},{"source":"173","target":"127","id":"909","attributes":{},"color":"rgb(214,150,182)","size":1.0},{"source":"124","target":"64","id":"515","attributes":{},"color":"rgb(208,28,139)","size":1.0},{"source":"130","target":"106","id":"582","attributes":{},"color":"rgb(180,151,145)","size":1.0},{"source":"136","target":"104","id":"682","attributes":{},"color":"rgb(147,125,101)","size":1.0},{"source":"150","target":"50","id":"727","attributes":{},"color":"rgb(149,106,98)","size":1.0},{"source":"122","target":"41","id":"507","attributes":{},"color":"rgb(222,150,190)","size":1.0},{"source":"30","target":"169","id":"54","attributes":{},"color":"rgb(213,61,155)","size":1.0},{"source":"136","target":"48","id":"648","attributes":{},"color":"rgb(146,123,100)","size":1.0},{"source":"218","target":"70","id":"1241","attributes":{},"color":"rgb(192,127,151)","size":1.0},{"source":"212","target":"152","id":"1216","attributes":{},"color":"rgb(215,70,159)","size":1.0},{"source":"208","target":"50","id":"1195","attributes":{},"color":"rgb(149,108,98)","size":1.0},{"source":"218","target":"136","id":"1243","attributes":{},"color":"rgb(143,106,91)","size":1.0},{"source":"130","target":"77","id":"569","attributes":{},"color":"rgb(176,130,135)","size":1.0},{"source":"136","target":"25","id":"633","attributes":{},"color":"rgb(144,112,94)","size":1.0},{"source":"36","target":"123","id":"63","attributes":{},"color":"rgb(213,61,155)","size":1.0},{"source":"111","target":"50","id":"455","attributes":{},"color":"rgb(155,140,114)","size":1.0},{"source":"192","target":"80","id":"1023","attributes":{},"color":"rgb(173,213,155)","size":1.0},{"source":"4","target":"132","id":"5","attributes":{},"color":"rgb(213,59,154)","size":1.0},{"source":"136","target":"24","id":"632","attributes":{},"color":"rgb(149,139,107)","size":1.0},{"source":"41","target":"31","id":"85","attributes":{},"color":"rgb(222,150,191)","size":1.0},{"source":"136","target":"130","id":"696","attributes":{},"color":"rgb(108,185,76)","size":1.0},{"source":"106","target":"115","id":"434","attributes":{},"color":"rgb(220,99,174)","size":1.0},{"source":"136","target":"65","id":"658","attributes":{},"color":"rgb(146,123,99)","size":1.0},{"source":"136","target":"39","id":"642","attributes":{},"color":"rgb(142,100,88)","size":1.0},{"source":"219","target":"154","id":"1252","attributes":{},"color":"rgb(230,157,202)","size":1.0},{"source":"27","target":"203","id":"49","attributes":{},"color":"rgb(212,55,152)","size":1.0},{"source":"61","target":"145","id":"175","attributes":{},"color":"rgb(214,66,157)","size":1.0},{"source":"80","target":"75","id":"275","attributes":{},"color":"rgb(157,124,112)","size":1.0},{"source":"223","target":"192","id":"1269","attributes":{},"color":"rgb(230,155,201)","size":1.0},{"source":"172","target":"207","id":"894","attributes":{},"color":"rgb(220,98,173)","size":1.0},{"source":"200","target":"23","id":"1100","attributes":{},"color":"rgb(171,112,123)","size":1.0},{"source":"119","target":"37","id":"489","attributes":{},"color":"rgb(219,94,171)","size":1.0},{"source":"130","target":"10","id":"545","attributes":{},"color":"rgb(179,145,142)","size":1.0},{"source":"152","target":"102","id":"739","attributes":{},"color":"rgb(217,83,166)","size":1.0},{"source":"80","target":"69","id":"273","attributes":{},"color":"rgb(160,139,119)","size":1.0},{"source":"192","target":"44","id":"1014","attributes":{},"color":"rgb(234,176,211)","size":1.0},{"source":"176","target":"70","id":"925","attributes":{},"color":"rgb(197,154,164)","size":1.0},{"source":"154","target":"69","id":"764","attributes":{},"color":"rgb(233,169,208)","size":1.0},{"source":"192","target":"63","id":"1018","attributes":{},"color":"rgb(229,147,197)","size":1.0},{"source":"211","target":"134","id":"1210","attributes":{},"color":"rgb(214,65,157)","size":1.0},{"source":"186","target":"30","id":"972","attributes":{},"color":"rgb(211,51,150)","size":1.0},{"source":"130","target":"65","id":"565","attributes":{},"color":"rgb(177,136,138)","size":1.0},{"source":"95","target":"41","id":"362","attributes":{},"color":"rgb(220,138,185)","size":1.0},{"source":"161","target":"136","id":"809","attributes":{},"color":"rgb(142,100,88)","size":1.0},{"source":"136","target":"10","id":"626","attributes":{},"color":"rgb(148,131,104)","size":1.0},{"source":"43","target":"154","id":"97","attributes":{},"color":"rgb(227,138,193)","size":1.0},{"source":"75","target":"41","id":"225","attributes":{},"color":"rgb(223,153,192)","size":1.0},{"source":"132","target":"80","id":"602","attributes":{},"color":"rgb(158,132,116)","size":1.0},{"source":"205","target":"70","id":"1171","attributes":{},"color":"rgb(194,139,157)","size":1.0},{"source":"110","target":"13","id":"450","attributes":{},"color":"rgb(211,50,149)","size":1.0},{"source":"179","target":"217","id":"943","attributes":{},"color":"rgb(213,59,154)","size":1.0},{"source":"194","target":"70","id":"1058","attributes":{},"color":"rgb(194,137,156)","size":1.0},{"source":"118","target":"70","id":"483","attributes":{},"color":"rgb(204,228,194)","size":1.0},{"source":"173","target":"24","id":"897","attributes":{},"color":"rgb(217,169,191)","size":1.0},{"source":"21","target":"109","id":"37","attributes":{},"color":"rgb(214,69,159)","size":1.0},{"source":"199","target":"221","id":"1096","attributes":{},"color":"rgb(211,46,148)","size":1.0},{"source":"190","target":"171","id":"1002","attributes":{},"color":"rgb(214,65,157)","size":1.0},{"source":"50","target":"3","id":"123","attributes":{},"color":"rgb(148,102,96)","size":1.0},{"source":"164","target":"50","id":"830","attributes":{},"color":"rgb(154,133,111)","size":1.0},{"source":"111","target":"224","id":"462","attributes":{},"color":"rgb(215,70,159)","size":1.0},{"source":"57","target":"50","id":"163","attributes":{},"color":"rgb(148,102,96)","size":1.0},{"source":"50","target":"32","id":"138","attributes":{},"color":"rgb(149,106,97)","size":1.0},{"source":"130","target":"22","id":"550","attributes":{},"color":"rgb(179,146,143)","size":1.0}]}